$GPGGA,114045.00,5035.249337,N,03635.241527,E,1,12,0.4,120.4,M,17.4,M,,*64
$GPRMC,114045.00,A,5035.249337,N,03635.241527,E,020.5,205.5,200119,,,A*5A
$GPGGA,114046.00,5035.243992,N,03635.237729,E,1,12,0.8,120.3,M,17.4,M,,*6E
$GPRMC,114046.00,A,5035.243992,N,03635.237729,E,020.7,206.5,200119,,,A*5A
$GPGGA,114047.00,5035.238578,N,03635.233802,E,1,12,0.4,120.6,M,17.4,M,,*60
$GPRMC,114047.00,A,5035.238578,N,03635.233802,E,020.6,206.5,200119,,,A*5C
$GPGGA,114048.00,5035.233223,N,03635.229947,E,1,12,0.4,120.8,M,17.4,M,,*68
$GPRMC,114048.00,A,5035.233223,N,03635.229947,E,020.4,206.8,200119,,,A*55
$GPGGA,114049.00,5035.227912,N,03635.225822,E,1,12,0.4,121.0,M,17.4,M,,*62
$GPRMC,114049.00,A,5035.227912,N,03635.225822,E,020.1,206.8,200119,,,A*53
$GPGGA,114050.00,5035.223015,N,03635.221851,E,1,12,0.4,121.1,M,17.4,M,,*61
$GPRMC,114050.00,A,5035.223015,N,03635.221851,E,019.7,207.1,200119,,,A*55
$GPGGA,114051.00,5035.218512,N,03635.218194,E,1,13,0.6,121.0,M,17.4,M,,*62
$GPRMC,114051.00,A,5035.218512,N,03635.218194,E,018.2,207.6,200119,,,A*57
$GPGGA,114052.00,5035.214644,N,03635.214487,E,1,13,0.6,120.7,M,17.4,M,,*60
$GPRMC,114052.00,A,5035.214644,N,03635.214487,E,016.3,211.0,200119,,,A*5D
$GPGGA,114053.00,5035.211682,N,03635.208498,E,1,13,0.6,120.4,M,17.4,M,,*6E
$GPRMC,114053.00,A,5035.211682,N,03635.208498,E,016.7,232.3,200119,,,A*56
$GPGGA,114054.00,5035.208948,N,03635.202413,E,1,13,0.6,119.9,M,17.4,M,,*66
$GPRMC,114054.00,A,5035.208948,N,03635.202413,E,016.8,235.6,200119,,,A*54
$GPGGA,114055.00,5035.207659,N,03635.195284,E,1,13,0.4,119.5,M,17.4,M,,*6C
$GPRMC,114055.00,A,5035.207659,N,03635.195284,E,017.3,256.1,200119,,,A*58
$GPGGA,114056.00,5035.207721,N,03635.188141,E,1,13,0.4,119.5,M,17.4,M,,*67
$GPRMC,114056.00,A,5035.207721,N,03635.188141,E,018.3,272.9,200119,,,A*52
$GPGGA,114057.00,5035.208213,N,03635.179822,E,1,13,0.4,119.7,M,17.4,M,,*6D
$GPRMC,114057.00,A,5035.208213,N,03635.179822,E,019.8,275.9,200119,,,A*57
$GPGGA,114058.00,5035.208989,N,03635.171623,E,1,13,0.8,119.7,M,17.4,M,,*61
$GPRMC,114058.00,A,5035.208989,N,03635.171623,E,020.8,277.6,200119,,,A*50
$GPGGA,114059.00,5035.210076,N,03635.162147,E,1,13,0.8,119.8,M,17.4,M,,*68
$GPRMC,114059.00,A,5035.210076,N,03635.162147,E,021.9,278.9,200119,,,A*56
$GPGGA,114100.00,5035.211171,N,03635.153050,E,1,13,0.6,120.1,M,17.4,M,,*6A
$GPRMC,114100.00,A,5035.211171,N,03635.153050,E,022.4,279.7,200119,,,A*58
$GPGGA,114101.00,5035.212288,N,03635.144622,E,1,13,0.6,120.5,M,17.4,M,,*6C
$GPRMC,114101.00,A,5035.212288,N,03635.144622,E,019.4,280.6,200119,,,A*55
$GPGGA,114102.00,5035.213356,N,03635.137658,E,1,13,0.8,120.9,M,17.4,M,,*67
$GPRMC,114102.00,A,5035.213356,N,03635.137658,E,012.9,282.2,200119,,,A*5C
$GPGGA,114103.00,5035.214101,N,03635.133396,E,1,13,0.8,120.9,M,17.4,M,,*62
$GPRMC,114103.00,A,5035.214101,N,03635.133396,E,008.0,283.1,200119,,,A*59
$GPGGA,114104.00,5035.215599,N,03635.129227,E,1,13,0.8,120.9,M,17.4,M,,*61
$GPRMC,114104.00,A,5035.215599,N,03635.129227,E,007.0,303.2,200119,,,A*5F
$GPGGA,114105.00,5035.217027,N,03635.125285,E,1,13,0.8,119.7,M,17.4,M,,*62
$GPRMC,114105.00,A,5035.217027,N,03635.125285,E,009.0,302.3,200119,,,A*56
$GPGGA,114106.00,5035.217591,N,03635.120363,E,1,13,0.6,118.5,M,17.4,M,,*68
$GPRMC,114106.00,A,5035.217591,N,03635.120363,E,012.3,283.6,200119,,,A*55
$GPGGA,114107.00,5035.218399,N,03635.114078,E,1,13,0.6,117.9,M,17.4,M,,*65
$GPRMC,114107.00,A,5035.218399,N,03635.114078,E,014.0,280.9,200119,,,A*52
$GPGGA,114108.00,5035.219001,N,03635.107650,E,1,13,0.6,117.7,M,17.4,M,,*69
$GPRMC,114108.00,A,5035.219001,N,03635.107650,E,016.1,278.8,200119,,,A*55
$GPGGA,114109.00,5035.219416,N,03635.101294,E,1,13,0.6,117.9,M,17.4,M,,*6E
$GPRMC,114109.00,A,5035.219416,N,03635.101294,E,017.7,277.8,200119,,,A*54
$GPGGA,114110.00,5035.219861,N,03635.094068,E,1,13,0.6,118.4,M,17.4,M,,*64
$GPRMC,114110.00,A,5035.219861,N,03635.094068,E,018.8,277.2,200119,,,A*56
$GPGGA,114111.00,5035.220561,N,03635.085279,E,1,13,0.6,118.5,M,17.4,M,,*61
$GPRMC,114111.00,A,5035.220561,N,03635.085279,E,019.7,277.9,200119,,,A*57
$GPGGA,114112.00,5035.221385,N,03635.077422,E,1,13,0.6,118.4,M,17.4,M,,*6B
$GPRMC,114112.00,A,5035.221385,N,03635.077422,E,017.9,279.4,200119,,,A*5F
$GPGGA,114113.00,5035.222179,N,03635.070768,E,1,13,0.6,118.2,M,17.4,M,,*64
$GPRMC,114113.00,A,5035.222179,N,03635.070768,E,014.7,281.3,200119,,,A*5B
$GPGGA,114114.00,5035.222998,N,03635.065462,E,1,13,0.8,117.9,M,17.4,M,,*63
$GPRMC,114114.00,A,5035.222998,N,03635.065462,E,010.2,280.9,200119,,,A*5C
$GPGGA,114115.00,5035.222175,N,03635.062035,E,1,13,0.8,117.8,M,17.4,M,,*69
$GPRMC,114115.00,A,5035.222175,N,03635.062035,E,008.1,246.7,200119,,,A*59
$GPGGA,114116.00,5035.220046,N,03635.058019,E,1,13,0.8,117.8,M,17.4,M,,*6E
$GPRMC,114116.00,A,5035.220046,N,03635.058019,E,008.1,217.2,200119,,,A*5F
$GPGGA,114117.00,5035.218056,N,03635.058456,E,1,13,0.8,117.9,M,17.4,M,,*6B
$GPRMC,114117.00,A,5035.218056,N,03635.058456,E,008.3,174.1,200119,,,A*5C
$GPGGA,114118.00,5035.216950,N,03635.061265,E,1,13,0.6,118.3,M,17.4,M,,*62
$GPRMC,114118.00,A,5035.216950,N,03635.061265,E,,139.8,200119,,,A*7B
$GPGGA,114119.00,5035.216731,N,03635.064485,E,1,13,0.6,118.5,M,17.4,M,,*61
$GPRMC,114119.00,A,5035.216731,N,03635.064485,E,,099.2,200119,,,A*7F
$GPGGA,114120.00,5035.216422,N,03635.069774,E,1,13,0.6,118.9,M,17.4,M,,*66
$GPRMC,114120.00,A,5035.216422,N,03635.069774,E,013.0,098.0,200119,,,A*5B
$GPGGA,114121.00,5035.216325,N,03635.075768,E,1,13,0.6,118.7,M,17.4,M,,*69
$GPRMC,114121.00,A,5035.216325,N,03635.075768,E,014.7,096.8,200119,,,A*5C
$GPGGA,114122.00,5035.216063,N,03635.083060,E,1,13,0.4,117.7,M,17.4,M,,*60
$GPRMC,114122.00,A,5035.216063,N,03635.083060,E,016.4,096.0,200119,,,A*51
$GPGGA,114123.00,5035.215938,N,03635.090423,E,1,13,0.4,117.1,M,17.4,M,,*62
$GPRMC,114123.00,A,5035.215938,N,03635.090423,E,017.2,094.8,200119,,,A*58
$GPGGA,114124.00,5035.215898,N,03635.097740,E,1,13,0.4,116.5,M,17.4,M,,*6A
$GPRMC,114124.00,A,5035.215898,N,03635.097740,E,017.1,094.0,200119,,,A*5E
$GPGGA,114125.00,5035.215964,N,03635.104127,E,1,13,0.4,116.1,M,17.4,M,,*61
$GPRMC,114125.00,A,5035.215964,N,03635.104127,E,012.9,093.5,200119,,,A*5E
$GPGGA,114126.00,5035.215937,N,03635.108811,E,1,13,0.4,115.5,M,17.4,M,,*63
$GPRMC,114126.00,A,5035.215937,N,03635.108811,E,009.0,093.8,200119,,,A*55
$GPGGA,114127.00,5035.216019,N,03635.112209,E,1,13,0.4,115.0,M,17.4,M,,*69
$GPRMC,114127.00,A,5035.216019,N,03635.112209,E,008.3,094.1,200119,,,A*56
$GPGGA,114128.00,5035.215917,N,03635.115496,E,1,13,0.4,114.4,M,17.4,M,,*60
$GPRMC,114128.00,A,5035.215917,N,03635.115496,E,009.0,096.4,200119,,,A*5F
$GPGGA,114129.00,5035.215553,N,03635.119712,E,1,13,0.4,113.6,M,17.4,M,,*6B
$GPRMC,114129.00,A,5035.215553,N,03635.119712,E,012.3,099.6,200119,,,A*55
$GPGGA,114130.00,5035.214805,N,03635.125107,E,1,13,0.6,113.0,M,17.4,M,,*65
$GPRMC,114130.00,A,5035.214805,N,03635.125107,E,013.3,102.1,200119,,,A*5A
$GPGGA,114131.00,5035.213838,N,03635.131150,E,1,13,0.6,112.7,M,17.4,M,,*6C
$GPRMC,114131.00,A,5035.213838,N,03635.131150,E,013.2,103.9,200119,,,A*5D
$GPGGA,114132.00,5035.212790,N,03635.137554,E,1,13,0.6,112.7,M,17.4,M,,*65
$GPRMC,114132.00,A,5035.212790,N,03635.137554,E,015.9,104.4,200119,,,A*53
$GPGGA,114133.00,5035.211629,N,03635.144894,E,1,13,0.6,113.4,M,17.4,M,,*63
$GPRMC,114133.00,A,5035.211629,N,03635.144894,E,018.5,103.7,200119,,,A*52
$GPGGA,114134.00,5035.210216,N,03635.153571,E,1,13,0.8,114.4,M,17.4,M,,*64
$GPRMC,114134.00,A,5035.210216,N,03635.153571,E,019.8,103.0,200119,,,A*57
$GPGGA,114135.00,5035.208765,N,03635.162074,E,1,13,0.8,115.4,M,17.4,M,,*6E
$GPRMC,114135.00,A,5035.208765,N,03635.162074,E,020.8,103.2,200119,,,A*54
$GPGGA,114136.00,5035.207583,N,03635.170913,E,1,13,0.8,116.3,M,17.4,M,,*67
$GPRMC,114136.00,A,5035.207583,N,03635.170913,E,020.1,102.6,200119,,,A*55
$GPGGA,114137.00,5035.206482,N,03635.179003,E,1,13,0.8,116.9,M,17.4,M,,*6C
$GPRMC,114137.00,A,5035.206482,N,03635.179003,E,016.2,102.2,200119,,,A*56
$GPGGA,114138.00,5035.205438,N,03635.185276,E,1,13,0.8,117.8,M,17.4,M,,*62
$GPRMC,114138.00,A,5035.205438,N,03635.185276,E,014.8,104.3,200119,,,A*57
$GPGGA,114139.00,5035.204068,N,03635.192493,E,1,13,0.8,118.5,M,17.4,M,,*6A
$GPRMC,114139.00,A,5035.204068,N,03635.192493,E,017.0,105.4,200119,,,A*50
$GPGGA,114140.00,5035.202670,N,03635.200831,E,1,13,0.8,119.2,M,17.4,M,,*67
$GPRMC,114140.00,A,5035.202670,N,03635.200831,E,019.0,103.4,200119,,,A*53
$GPGGA,114141.00,5035.201643,N,03635.209623,E,1,13,0.6,119.6,M,17.4,M,,*6B
$GPRMC,114141.00,A,5035.201643,N,03635.209623,E,021.7,100.5,200119,,,A*5B
$GPGGA,114142.00,5035.200725,N,03635.219002,E,1,13,0.6,119.7,M,17.4,M,,*6D
$GPRMC,114142.00,A,5035.200725,N,03635.219002,E,023.1,099.4,200119,,,A*58
$GPGGA,114143.00,5035.199622,N,03635.228634,E,1,13,0.6,120.0,M,17.4,M,,*65
$GPRMC,114143.00,A,5035.199622,N,03635.228634,E,023.7,099.8,200119,,,A*57
$GPGGA,114144.00,5035.198770,N,03635.237099,E,1,10,0.8,119.6,M,17.4,M,,*6B
$GPRMC,114144.00,A,5035.198770,N,03635.237099,E,022.7,100.4,200119,,,A*54
$GPGGA,114145.00,5035.197871,N,03635.247088,E,1,11,0.8,119.1,M,17.4,M,,*6A
$GPRMC,114145.00,A,5035.197871,N,03635.247088,E,023.8,098.5,200119,,,A*5C
$GPGGA,114146.00,5035.197241,N,03635.256493,E,1,12,1.6,118.7,M,17.4,M,,*65
$GPRMC,114146.00,A,5035.197241,N,03635.256493,E,020.8,097.4,200119,,,A*55
$GPGGA,114147.00,5035.197092,N,03635.265026,E,1,11,0.8,119.0,M,17.4,M,,*68
$GPRMC,114147.00,A,5035.197092,N,03635.265026,E,018.4,094.5,200119,,,A*57
$GPGGA,114148.00,5035.197191,N,03635.273291,E,1,13,0.8,119.3,M,17.4,M,,*6D
$GPRMC,114148.00,A,5035.197191,N,03635.273291,E,018.2,091.8,200119,,,A*5D
$GPGGA,114149.00,5035.198566,N,03635.280877,E,1,13,0.8,118.8,M,17.4,M,,*6B
$GPRMC,114149.00,A,5035.198566,N,03635.280877,E,017.6,074.6,200119,,,A*5F
$GPGGA,114150.00,5035.201155,N,03635.285861,E,1,13,0.8,118.3,M,17.4,M,,*6D
$GPRMC,114150.00,A,5035.201155,N,03635.285861,E,017.0,052.5,200119,,,A*53
$GPGGA,114151.00,5035.204312,N,03635.290944,E,1,13,0.6,118.4,M,17.4,M,,*63
$GPRMC,114151.00,A,5035.204312,N,03635.290944,E,016.8,038.0,200119,,,A*54
$GPGGA,114152.00,5035.208623,N,03635.294743,E,1,13,0.6,118.9,M,17.4,M,,*6B
$GPRMC,114152.00,A,5035.208623,N,03635.294743,E,018.6,023.0,200119,,,A*5B
$GPGGA,114153.00,5035.213112,N,03635.298693,E,1,13,0.6,119.9,M,17.4,M,,*64
$GPRMC,114153.00,A,5035.213112,N,03635.298693,E,019.4,022.3,200119,,,A*54
$GPGGA,114154.00,5035.218409,N,03635.302858,E,1,13,0.6,121.3,M,17.4,M,,*6D
$GPRMC,114154.00,A,5035.218409,N,03635.302858,E,021.9,023.7,200119,,,A*5F
$GPGGA,114155.00,5035.224978,N,03635.307950,E,1,13,0.6,122.5,M,17.4,M,,*61
$GPRMC,114155.00,A,5035.224978,N,03635.307950,E,023.7,024.8,200119,,,A*52
$GPGGA,114156.00,5035.231564,N,03635.313437,E,1,13,0.6,123.2,M,17.4,M,,*68
$GPRMC,114156.00,A,5035.231564,N,03635.313437,E,025.3,025.5,200119,,,A*53
$GPGGA,114157.00,5035.237816,N,03635.318892,E,1,13,0.6,123.6,M,17.4,M,,*6B
$GPRMC,114157.00,A,5035.237816,N,03635.318892,E,026.6,026.0,200119,,,A*54
$GPGGA,114158.00,5035.244330,N,03635.324427,E,1,13,0.6,123.6,M,17.4,M,,*62
$GPRMC,114158.00,A,5035.244330,N,03635.324427,E,027.4,026.7,200119,,,A*59
$GPGGA,114159.00,5035.250865,N,03635.330099,E,1,13,0.4,123.7,M,17.4,M,,*6A
$GPRMC,114159.00,A,5035.250865,N,03635.330099,E,027.3,027.2,200119,,,A*51
$GPGGA,114200.00,5035.257452,N,03635.335645,E,1,13,0.4,123.7,M,17.4,M,,*68
$GPRMC,114200.00,A,5035.257452,N,03635.335645,E,026.1,026.6,200119,,,A*55
$GPGGA,114201.00,5035.263516,N,03635.340627,E,1,14,0.4,123.6,M,17.4,M,,*6F
$GPRMC,114201.00,A,5035.263516,N,03635.340627,E,023.3,027.1,200119,,,A*55
$GPGGA,114202.00,5035.268486,N,03635.344685,E,1,14,0.4,123.4,M,17.4,M,,*61
$GPRMC,114202.00,A,5035.268486,N,03635.344685,E,019.1,026.5,200119,,,A*57
$GPGGA,114203.00,5035.272623,N,03635.347419,E,1,14,0.6,123.6,M,17.4,M,,*62
$GPRMC,114203.00,A,5035.272623,N,03635.347419,E,016.7,023.4,200119,,,A*59
$GPGGA,114204.00,5035.277122,N,03635.347537,E,1,14,0.6,124.0,M,17.4,M,,*6A
$GPRMC,114204.00,A,5035.277122,N,03635.347537,E,015.1,358.4,200119,,,A*5A
$GPGGA,114205.00,5035.280049,N,03635.345251,E,1,14,0.6,124.3,M,17.4,M,,*69
$GPRMC,114205.00,A,5035.280049,N,03635.345251,E,013.9,336.1,200119,,,A*59
$GPGGA,114206.00,5035.283470,N,03635.340892,E,1,14,0.6,124.4,M,17.4,M,,*60
$GPRMC,114206.00,A,5035.283470,N,03635.340892,E,014.9,319.5,200119,,,A*59
$GPGGA,114207.00,5035.286617,N,03635.336907,E,1,14,0.6,124.7,M,17.4,M,,*68
$GPRMC,114207.00,A,5035.286617,N,03635.336907,E,013.7,317.1,200119,,,A*51
$GPGGA,114208.00,5035.289007,N,03635.333500,E,1,14,0.6,125.7,M,17.4,M,,*60
$GPRMC,114208.00,A,5035.289007,N,03635.333500,E,009.4,316.1,200119,,,A*51
$GPGGA,114209.00,5035.290392,N,03635.331664,E,1,14,0.6,125.8,M,17.4,M,,*6A
$GPRMC,114209.00,A,5035.290392,N,03635.331664,E,005.0,318.9,200119,,,A*5A
$GPGGA,114210.00,5035.290392,N,03635.331664,E,1,13,0.6,125.9,M,17.4,M,,*64
$GPRMC,114210.00,A,5035.290392,N,03635.331664,E,000.0,318.9,200119,,,A*57
$GPGGA,114211.00,5035.291598,N,03635.330023,E,1,13,0.8,126.0,M,17.4,M,,*68
$GPRMC,114211.00,A,5035.291598,N,03635.330023,E,003.3,330.3,200119,,,A*5F
$GPGGA,114212.00,5035.291598,N,03635.330023,E,1,13,0.8,126.1,M,17.4,M,,*6A
$GPRMC,114212.00,A,5035.291598,N,03635.330023,E,000.0,330.3,200119,,,A*5C
$GPGGA,114213.00,5035.291598,N,03635.330023,E,1,13,0.8,126.2,M,17.4,M,,*68
$GPRMC,114213.00,A,5035.291598,N,03635.330023,E,000.0,330.3,200119,,,A*5D
$GPGGA,114214.00,5035.291598,N,03635.330023,E,1,13,0.6,126.3,M,17.4,M,,*60
$GPRMC,114214.00,A,5035.291598,N,03635.330023,E,000.0,330.3,200119,,,A*5A
$GPGGA,114215.00,5035.295827,N,03635.328220,E,1,13,0.6,126.4,M,17.4,M,,*63
$GPRMC,114215.00,A,5035.295827,N,03635.328220,E,007.6,001.4,200119,,,A*59
$GPGGA,114216.00,5035.298359,N,03635.330033,E,1,13,0.6,127.0,M,17.4,M,,*63
$GPRMC,114216.00,A,5035.298359,N,03635.330033,E,012.1,020.3,200119,,,A*5B
$GPGGA,114217.00,5035.303463,N,03635.333051,E,1,13,0.8,127.0,M,17.4,M,,*66
$GPRMC,114217.00,A,5035.303463,N,03635.333051,E,019.1,021.3,200119,,,A*5A
$GPGGA,114218.00,5035.308409,N,03635.336640,E,1,13,0.8,127.2,M,17.4,M,,*6F
$GPRMC,114218.00,A,5035.308409,N,03635.336640,E,021.7,023.2,200119,,,A*5F
$GPGGA,114219.00,5035.314909,N,03635.341334,E,1,13,0.8,127.6,M,17.4,M,,*6C
$GPRMC,114219.00,A,5035.314909,N,03635.341334,E,026.1,024.0,200119,,,A*5C
$GPGGA,114220.00,5035.321826,N,03635.346489,E,1,13,0.8,127.7,M,17.4,M,,*6B
$GPRMC,114220.00,A,5035.321826,N,03635.346489,E,028.8,024.7,200119,,,A*5A
$GPGGA,114221.00,5035.328887,N,03635.351653,E,1,14,0.6,127.8,M,17.4,M,,*6D
$GPRMC,114221.00,A,5035.328887,N,03635.351653,E,030.2,025.5,200119,,,A*5A
$GPGGA,114222.00,5035.336541,N,03635.357684,E,1,14,0.6,127.5,M,17.4,M,,*67
$GPRMC,114222.00,A,5035.336541,N,03635.357684,E,031.8,025.7,200119,,,A*54
$GPGGA,114223.00,5035.344770,N,03635.364312,E,1,14,0.6,127.2,M,17.4,M,,*6E
$GPRMC,114223.00,A,5035.344770,N,03635.364312,E,033.7,025.2,200119,,,A*52
$GPGGA,114224.00,5035.353610,N,03635.371111,E,1,14,0.8,126.7,M,17.4,M,,*67
$GPRMC,114224.00,A,5035.353610,N,03635.371111,E,034.5,025.6,200119,,,A*50
$GPGGA,114225.00,5035.361854,N,03635.377793,E,1,14,0.4,126.3,M,17.4,M,,*6B
$GPRMC,114225.00,A,5035.361854,N,03635.377793,E,035.4,026.1,200119,,,A*50
$GPGGA,114226.00,5035.370480,N,03635.384622,E,1,13,0.6,125.9,M,17.4,M,,*66
$GPRMC,114226.00,A,5035.370480,N,03635.384622,E,035.9,026.3,200119,,,A*5E
$GPGGA,114227.00,5035.379417,N,03635.391657,E,1,13,0.6,125.4,M,17.4,M,,*6B
$GPRMC,114227.00,A,5035.379417,N,03635.391657,E,036.7,025.9,200119,,,A*5A
$GPGGA,114228.00,5035.388220,N,03635.398708,E,1,14,0.6,124.7,M,17.4,M,,*6F
$GPRMC,114228.00,A,5035.388220,N,03635.398708,E,037.0,025.2,200119,,,A*56
$GPGGA,114229.00,5035.397241,N,03635.405708,E,1,13,0.6,124.0,M,17.4,M,,*64
$GPRMC,114229.00,A,5035.397241,N,03635.405708,E,037.2,025.9,200119,,,A*54
$GPGGA,114230.00,5035.405956,N,03635.412625,E,1,13,0.6,123.0,M,17.4,M,,*62
$GPRMC,114230.00,A,5035.405956,N,03635.412625,E,036.6,025.9,200119,,,A*50
$GPGGA,114231.00,5035.414603,N,03635.419601,E,1,13,0.6,122.0,M,17.4,M,,*60
$GPRMC,114231.00,A,5035.414603,N,03635.419601,E,037.1,025.6,200119,,,A*5A
$GPGGA,114232.00,5035.423195,N,03635.426473,E,1,13,0.8,120.9,M,17.4,M,,*61
$GPRMC,114232.00,A,5035.423195,N,03635.426473,E,037.0,025.7,200119,,,A*5E
$GPGGA,114233.00,5035.431812,N,03635.433470,E,1,13,0.6,119.9,M,17.4,M,,*66
$GPRMC,114233.00,A,5035.431812,N,03635.433470,E,036.7,026.5,200119,,,A*5A
$GPGGA,114234.00,5035.440466,N,03635.440904,E,1,13,0.6,118.5,M,17.4,M,,*6F
$GPRMC,114234.00,A,5035.440466,N,03635.440904,E,036.1,028.1,200119,,,A*52
$GPGGA,114235.00,5035.449425,N,03635.449419,E,1,14,0.6,117.7,M,17.4,M,,*62
$GPRMC,114235.00,A,5035.449425,N,03635.449419,E,035.5,030.6,200119,,,A*5C
$GPGGA,114236.00,5035.456761,N,03635.460412,E,1,14,0.6,116.9,M,17.4,M,,*63
$GPRMC,114236.00,A,5035.456761,N,03635.460412,E,035.1,044.1,200119,,,A*52
$GPGGA,114237.00,5035.463280,N,03635.471266,E,1,12,0.6,116.0,M,17.4,M,,*64
$GPRMC,114237.00,A,5035.463280,N,03635.471266,E,034.1,047.3,200119,,,A*5A
$GPGGA,114238.00,5035.469595,N,03635.483097,E,1,12,0.6,115.4,M,17.4,M,,*64
$GPRMC,114238.00,A,5035.469595,N,03635.483097,E,033.5,050.4,200119,,,A*5F
$GPGGA,114239.00,5035.475238,N,03635.494941,E,1,13,0.6,114.8,M,17.4,M,,*60
$GPRMC,114239.00,A,5035.475238,N,03635.494941,E,033.6,052.5,200119,,,A*57
$GPGGA,114240.00,5035.480480,N,03635.507026,E,1,13,0.6,114.3,M,17.4,M,,*69
$GPRMC,114240.00,A,5035.480480,N,03635.507026,E,033.4,055.1,200119,,,A*54
$GPGGA,114241.00,5035.484910,N,03635.518789,E,1,13,0.6,114.1,M,17.4,M,,*66
$GPRMC,114241.00,A,5035.484910,N,03635.518789,E,032.1,058.1,200119,,,A*50
$GPGGA,114242.00,5035.489033,N,03635.531463,E,1,13,1.2,113.8,M,17.4,M,,*67
$GPRMC,114242.00,A,5035.489033,N,03635.531463,E,031.7,062.1,200119,,,A*56
$GPGGA,114243.00,5035.491345,N,03635.546022,E,1,09,0.8,113.6,M,17.4,M,,*62
$GPRMC,114243.00,A,5035.491345,N,03635.546022,E,031.7,076.1,200119,,,A*58
$GPGGA,114244.00,5035.493474,N,03635.560408,E,1,13,0.8,113.2,M,17.4,M,,*65
$GPRMC,114244.00,A,5035.493474,N,03635.560408,E,031.6,075.7,200119,,,A*54
$GPGGA,114245.00,5035.495529,N,03635.574145,E,1,11,0.8,112.6,M,17.4,M,,*65
$GPRMC,114245.00,A,5035.495529,N,03635.574145,E,031.6,076.2,200119,,,A*55
$GPGGA,114246.00,5035.497359,N,03635.588097,E,1,11,0.8,112.1,M,17.4,M,,*6F
$GPRMC,114246.00,A,5035.497359,N,03635.588097,E,031.0,078.1,200119,,,A*53
$GPGGA,114247.00,5035.498595,N,03635.602018,E,1,12,0.6,111.9,M,17.4,M,,*67
$GPRMC,114247.00,A,5035.498595,N,03635.602018,E,030.7,081.2,200119,,,A*5E
$GPGGA,114248.00,5035.499331,N,03635.615419,E,1,11,0.8,111.6,M,17.4,M,,*60
$GPRMC,114248.00,A,5035.499331,N,03635.615419,E,030.0,084.7,200119,,,A*5C
$GPGGA,114249.00,5035.499374,N,03635.627246,E,1,12,0.6,111.3,M,17.4,M,,*65
$GPRMC,114249.00,A,5035.499374,N,03635.627246,E,029.0,088.4,200119,,,A*56
$GPGGA,114250.00,5035.497655,N,03635.638747,E,1,11,0.6,110.8,M,17.4,M,,*66
$GPRMC,114250.00,A,5035.497655,N,03635.638747,E,029.3,103.7,200119,,,A*5E
$GPGGA,114251.00,5035.495894,N,03635.650340,E,1,10,0.8,110.6,M,17.4,M,,*6A
$GPRMC,114251.00,A,5035.495894,N,03635.650340,E,028.2,102.8,200119,,,A*5D
$GPGGA,114252.00,5035.494210,N,03635.661976,E,1,11,0.8,110.6,M,17.4,M,,*62
$GPRMC,114252.00,A,5035.494210,N,03635.661976,E,026.4,102.6,200119,,,A*52
$GPGGA,114253.00,5035.492687,N,03635.672050,E,1,11,0.8,110.8,M,17.4,M,,*6E
$GPRMC,114253.00,A,5035.492687,N,03635.672050,E,022.3,103.4,200119,,,A*50
$GPGGA,114254.00,5035.491332,N,03635.680587,E,1,12,1.6,111.1,M,17.4,M,,*67
$GPRMC,114254.00,A,5035.491332,N,03635.680587,E,017.3,102.7,200119,,,A*59
$GPGGA,114255.00,5035.490292,N,03635.686834,E,1,13,1.2,111.5,M,17.4,M,,*6E
$GPRMC,114255.00,A,5035.490292,N,03635.686834,E,012.6,104.6,200119,,,A*56
$GPGGA,114256.00,5035.489681,N,03635.690580,E,1,12,1.2,111.5,M,17.4,M,,*67
$GPRMC,114256.00,A,5035.489681,N,03635.690580,E,006.9,106.8,200119,,,A*58
$GPGGA,114257.00,5035.489110,N,03635.693964,E,1,13,1.2,111.5,M,17.4,M,,*6D
$GPRMC,114257.00,A,5035.489110,N,03635.693964,E,004.8,108.5,200119,,,A*53
$GPGGA,114258.00,5035.489110,N,03635.693964,E,1,13,1.2,111.5,M,17.4,M,,*62
$GPRMC,114258.00,A,5035.489110,N,03635.693964,E,000.0,108.5,200119,,,A*50
$GPGGA,114259.00,5035.489110,N,03635.693964,E,1,12,0.8,111.5,M,17.4,M,,*69
$GPRMC,114259.00,A,5035.489110,N,03635.693964,E,000.0,108.5,200119,,,A*51
$GPGGA,114300.00,5035.489110,N,03635.693964,E,1,12,0.8,111.5,M,17.4,M,,*64
$GPRMC,114300.00,A,5035.489110,N,03635.693964,E,000.0,108.5,200119,,,A*5C
$GPGGA,114301.00,5035.489110,N,03635.693964,E,1,12,0.8,111.5,M,17.4,M,,*65
$GPRMC,114301.00,A,5035.489110,N,03635.693964,E,000.0,108.5,200119,,,A*5D
$GPGGA,114302.00,5035.489110,N,03635.693964,E,1,12,1.6,111.5,M,17.4,M,,*69
$GPRMC,114302.00,A,5035.489110,N,03635.693964,E,000.0,108.5,200119,,,A*5E
$GPGGA,114303.00,5035.489110,N,03635.693964,E,1,12,0.6,111.5,M,17.4,M,,*69
$GPRMC,114303.00,A,5035.489110,N,03635.693964,E,000.0,108.5,200119,,,A*5F
$GPGGA,114304.00,5035.489110,N,03635.693964,E,1,11,0.8,111.5,M,17.4,M,,*63
$GPRMC,114304.00,A,5035.489110,N,03635.693964,E,000.0,108.5,200119,,,A*58
$GPGGA,114305.00,5035.489110,N,03635.693964,E,1,12,0.8,111.5,M,17.4,M,,*61
$GPRMC,114305.00,A,5035.489110,N,03635.693964,E,000.0,108.5,200119,,,A*59
$GPGGA,114306.00,5035.489110,N,03635.693964,E,1,11,0.8,111.5,M,17.4,M,,*61
$GPRMC,114306.00,A,5035.489110,N,03635.693964,E,000.0,108.5,200119,,,A*5A
$GPGGA,114307.00,5035.489110,N,03635.693964,E,1,12,0.8,111.5,M,17.4,M,,*63
$GPRMC,114307.00,A,5035.489110,N,03635.693964,E,000.0,108.5,200119,,,A*5B
$GPGGA,114308.00,5035.489110,N,03635.693964,E,1,12,0.8,111.6,M,17.4,M,,*6F
$GPRMC,114308.00,A,5035.489110,N,03635.693964,E,000.0,108.5,200119,,,A*54
$GPGGA,114309.00,5035.488158,N,03635.698840,E,1,12,0.8,111.6,M,17.4,M,,*6F
$GPRMC,114309.00,A,5035.488158,N,03635.698840,E,002.7,103.5,200119,,,A*5A
$GPGGA,114310.00,5035.487875,N,03635.701008,E,1,13,0.8,111.6,M,17.4,M,,*6A
$GPRMC,114310.00,A,5035.487875,N,03635.701008,E,004.8,101.7,200119,,,A*57
$GPGGA,114311.00,5035.487579,N,03635.703568,E,1,13,0.8,111.6,M,17.4,M,,*6B
$GPRMC,114311.00,A,5035.487579,N,03635.703568,E,006.4,102.2,200119,,,A*5E
$GPGGA,114312.00,5035.487276,N,03635.706075,E,1,13,0.8,111.7,M,17.4,M,,*6D
$GPRMC,114312.00,A,5035.487276,N,03635.706075,E,006.8,101.2,200119,,,A*56
$GPGGA,114313.00,5035.486972,N,03635.708601,E,1,13,0.8,111.7,M,17.4,M,,*69
$GPRMC,114313.00,A,5035.486972,N,03635.708601,E,006.2,102.3,200119,,,A*5A
$GPGGA,114314.00,5035.486654,N,03635.710795,E,1,13,0.6,111.8,M,17.4,M,,*61
$GPRMC,114314.00,A,5035.486654,N,03635.710795,E,005.4,103.2,200119,,,A*56
