$GPGGA,042840.05,,,,,0,00,999.9,,M,,M,,*69
$GPGSV,3,1,12,23,63,158,32,26,37,222,34,10,35,193,43,15,25,080,33*74
$GPGSV,3,2,12,29,18,123,32,13,15,052,27,18,68,064,,16,49,271,*77
$GPGSV,3,3,12,27,33,302,,05,09,042,,08,05,304,,07,04,340,*7A
$GPGSA,A,1,,,,,,,,,,,,,140.0,99.0,99.0*35
$GPRMC,042840.05,V,,,,,,,300921,,,N*7B
$GPGGA,042841.05,,,,,0,00,999.9,,M,,M,,*68
$GPGSV,3,1,12,23,63,158,32,26,37,222,34,10,35,193,42,15,25,080,33*75
$GPGSV,3,2,12,29,18,123,32,13,16,052,27,18,68,064,,16,49,271,*74
$GPGSV,3,3,12,27,33,302,,05,09,042,,08,05,304,,07,04,340,*7A
$GPGSA,A,1,,,,,,,,,,,,,140.0,99.0,99.0*35
$GPRMC,042841.05,V,,,,,,,300921,,,N*7A
$GPGGA,042842.05,,,,,0,00,999.9,,M,,M,,*6B
$GPGSV,3,1,12,23,63,158,31,26,37,222,34,10,35,193,42,15,25,080,32*77
$GPGSV,3,2,12,29,18,123,32,13,16,052,27,18,68,064,,16,49,271,*74
$GPGSV,3,3,12,27,33,302,,05,09,042,,08,05,304,,07,04,340,*7A
$GPGSA,A,1,,,,,,,,,,,,,140.0,99.0,99.0*35
$GPRMC,042842.05,V,,,,,,,300921,,,N*79
$GPGGA,042843.05,,,,,0,00,999.9,,M,,M,,*6A
$GPGSV,3,1,12,23,63,158,31,26,37,222,33,10,35,193,42,15,25,080,31*73
$GPGSV,3,2,12,29,18,123,36,13,16,052,27,18,68,064,,16,49,271,*70
$GPGSV,3,3,12,27,33,302,,05,09,042,,08,05,304,,07,04,340,*7A
$GPGSA,A,1,,,,,,,,,,,,,140.0,99.0,99.0*35
$GPRMC,042843.05,V,,,,,,,300921,,,N*78
$GPGGA,042844.05,,,,,0,00,999.9,,M,,M,,*6D
$GPGSV,3,1,12,23,63,158,31,26,37,222,33,10,35,193,41,15,25,080,31*70
$GPGSV,3,2,12,29,18,123,37,13,16,052,27,18,68,064,,16,49,271,*71
$GPGSV,3,3,12,27,33,302,,05,09,042,,08,05,304,,07,04,340,*7A
$GPGSA,A,1,,,,,,,,,,,,,140.0,99.0,99.0*35
$GPRMC,042844.05,V,,,,,,,300921,,,N*7F
$GPGGA,042845.05,,,,,0,00,999.9,,M,,M,,*6C
$GPGSV,3,1,12,23,63,158,31,26,37,222,33,10,35,193,41,15,25,080,31*70
$GPGSV,3,2,12,29,18,123,37,13,16,052,26,18,68,064,,16,49,271,*70
$GPGSV,3,3,12,27,33,302,,05,09,042,,08,05,304,,07,04,340,*7A
$GPGSA,A,1,,,,,,,,,,,,,140.0,99.0,99.0*35
$GPRMC,042845.05,V,,,,,,,300921,,,N*7E
$GPGGA,042846.05,,,,,0,00,999.9,,M,,M,,*6F
$GPGSV,3,1,12,23,63,158,31,26,37,222,33,10,35,193,40,15,25,080,31*71
$GPGSV,3,2,12,29,18,123,37,13,16,052,26,18,68,064,,16,49,271,*70
$GPGSV,3,3,12,27,33,302,,05,09,042,,08,05,304,,07,04,340,*7A
$GPGSA,A,1,,,,,,,,,,,,,140.0,99.0,99.0*35
$GPRMC,042846.05,V,,,,,,,300921,,,N*7D
$GPGGA,042847.05,,,,,0,00,999.9,,M,,M,,*6E
$GPGSV,3,1,12,23,63,158,32,26,37,222,33,10,35,193,39,15,25,080,31*7C
$GPGSV,3,2,12,29,18,123,37,13,16,052,25,18,68,064,,16,49,271,*73
$GPGSV,3,3,12,27,33,302,,05,09,042,,08,05,304,,07,04,340,*7A
$GPGSA,A,1,,,,,,,,,,,,,140.0,99.0,99.0*35
$GPRMC,042847.05,V,,,,,,,300921,,,N*7C
$GPGGA,042848.05,,,,,0,00,999.9,,M,,M,,*61
$GPGSV,3,1,12,23,63,158,32,26,37,222,33,10,35,193,39,15,25,080,31*7C
$GPGSV,3,2,12,29,18,123,37,13,16,052,25,18,68,064,,16,49,271,*73
$GPGSV,3,3,12,27,33,302,,05,09,042,,08,05,304,,07,04,340,*7A
$GPGSA,A,1,,,,,,,,,,,,,140.0,99.0,99.0*35
$GPRMC,042848.05,V,,,,,,,300921,,,N*73
$GPGGA,042849.05,,,,,0,00,999.9,,M,,M,,*60
$GPGSV,3,1,12,23,63,158,32,26,37,222,33,10,35,193,39,15,25,080,31*7C
$GPGSV,3,2,12,29,18,123,37,13,16,052,24,18,68,064,,16,49,271,*72
$GPGSV,3,3,12,27,33,302,,05,09,042,,08,05,304,,07,04,340,*7A
$GPGSA,A,1,,,,,,,,,,,,,140.0,99.0,99.0*35
$GPRMC,042849.05,V,,,,,,,300921,,,N*72
$GPGGA,042850.05,,,,,0,00,999.9,,M,,M,,*68
$GPGSV,3,1,12,23,63,158,32,26,37,222,33,10,35,193,38,15,25,080,31*7D
$GPGSV,3,2,12,29,18,123,37,13,16,052,24,18,68,064,,16,49,271,*72
$GPGSV,3,3,12,27,33,302,,05,09,042,,08,05,304,,07,04,340,*7A
$GPGSA,A,1,,,,,,,,,,,,,140.0,99.0,99.0*35
$GPRMC,042850.05,V,,,,,,,300921,,,N*7A
$GPGGA,042851.05,,,,,0,00,999.9,,M,,M,,*69
$GPGSV,3,1,12,23,63,158,32,26,37,222,32,10,35,193,38,15,25,080,30*7D
$GPGSV,3,2,12,29,18,123,37,13,16,051,24,18,68,064,,16,49,271,*71
$GPGSV,3,3,12,27,33,302,,05,09,042,,08,05,304,,07,04,340,*7A
$GPGSA,A,1,,,,,,,,,,,,,140.0,99.0,99.0*35
$GPRMC,042851.05,V,,,,,,,300921,,,N*7B
$GPGGA,042852.05,,,,,0,00,999.9,,M,,M,,*6A
$GPGSV,3,1,12,23,63,158,32,26,37,222,32,10,35,193,38,15,25,080,30*7D
$GPGSV,3,2,12,29,18,123,37,13,16,051,23,18,68,064,,16,49,271,*76
$GPGSV,3,3,12,27,33,302,,05,09,042,,08,05,304,,07,04,340,*7A
$GPGSA,A,1,,,,,,,,,,,,,140.0,99.0,99.0*35
$GPRMC,042852.05,V,,,,,,,300921,,,N*78
$GPGGA,042853.05,,,,,0,00,999.9,,M,,M,,*6B
$GPGSV,3,1,12,23,63,158,32,26,37,222,32,10,35,193,37,15,25,080,30*72
$GPGSV,3,2,12,29,18,123,37,13,16,051,23,18,68,064,,16,49,271,*76
$GPGSV,3,3,12,27,33,302,,05,09,042,,08,05,304,,07,04,340,*7A
$GPGSA,A,1,,,,,,,,,,,,,140.0,99.0,99.0*35
$GPRMC,042853.05,V,,,,,,,300921,,,N*79
$GPGGA,042854.05,,,,,0,00,999.9,,M,,M,,*6C
$GPGSV,3,1,12,23,63,158,32,26,37,222,32,10,35,193,37,15,25,080,31*73
$GPGSV,3,2,12,29,18,123,38,13,16,051,24,18,68,064,,16,49,271,*7E
$GPGSV,3,3,12,27,33,302,,05,09,042,,08,05,304,,07,04,340,*7A
$GPGSA,A,1,,,,,,,,,,,,,140.0,99.0,99.0*35
$GPRMC,042854.05,V,,,,,,,300921,,,N*7E
$GPGGA,042855.05,,,,,0,00,999.9,,M,,M,,*6D
$GPGSV,3,1,12,23,63,158,32,26,37,222,32,10,35,193,37,15,25,080,31*73
$GPGSV,3,2,12,29,18,123,38,13,16,051,24,18,68,064,,16,49,271,*7E
$GPGSV,3,3,12,27,33,302,,05,09,042,,08,05,304,,07,04,340,*7A
$GPGSA,A,1,,,,,,,,,,,,,140.0,99.0,99.0*35
$GPRMC,042855.05,V,,,,,,,300921,,,N*7F
$GPGGA,042856.05,,,,,0,00,999.9,,M,,M,,*6E
$GPGSV,3,1,12,23,63,158,32,26,37,222,32,10,35,193,37,15,25,080,31*73
$GPGSV,3,2,12,29,18,123,38,13,16,051,24,18,68,064,,16,49,271,*7E
$GPGSV,3,3,12,27,33,302,,05,09,042,,08,05,304,,07,04,340,*7A
$GPGSA,A,1,,,,,,,,,,,,,140.0,99.0,99.0*35
$GPRMC,042856.05,V,,,,,,,300921,,,N*7C
$GPGGA,042857.05,,,,,0,00,999.9,,M,,M,,*6F
$GPGSV,3,1,12,23,63,158,32,26,37,222,32,10,35,193,37,15,25,080,31*73
$GPGSV,3,2,12,29,18,123,38,13,16,051,24,18,68,064,,16,49,271,*7E
$GPGSV,3,3,12,27,33,302,,05,09,042,,08,05,304,,07,04,340,*7A
$GPGSA,A,1,,,,,,,,,,,,,140.0,99.0,99.0*35
$GPRMC,042857.05,V,,,,,,,300921,,,N*7D
$GPGGA,042858.05,,,,,0,00,999.9,,M,,M,,*60
$GPGSV,3,1,12,23,63,158,32,26,37,222,32,10,35,193,37,15,25,080,31*73
$GPGSV,3,2,12,29,18,123,38,13,16,051,24,18,68,064,,16,49,271,*7E
$GPGSV,3,3,12,27,33,302,,05,09,042,,08,05,304,,07,04,340,*7A
$GPGSA,A,1,,,,,,,,,,,,,140.0,99.0,99.0*35
$GPRMC,042858.05,V,,,,,,,300921,,,N*72
$GPGGA,042859.05,,,,,0,00,999.9,,M,,M,,*61
$GPGSV,3,1,12,23,63,158,32,26,37,222,32,10,35,193,36,15,25,080,31*72
$GPGSV,3,2,12,29,18,123,38,13,16,051,24,18,68,064,,16,49,271,*7E
$GPGSV,3,3,12,27,33,302,,05,09,042,,08,05,304,,07,04,340,*7A
$GPGSA,A,1,,,,,,,,,,,,,140.0,99.0,99.0*35
$GPRMC,042859.05,V,,,,,,,300921,,,N*73
$GPGGA,042900.05,,,,,0,00,999.9,,M,,M,,*6C
$GPGSV,3,1,12,23,63,158,32,26,37,222,31,10,35,193,36,15,25,080,31*71
$GPGSV,3,2,12,29,18,123,39,13,16,051,24,18,68,064,,16,49,271,*7F
$GPGSV,3,3,12,27,33,302,,05,09,042,,08,05,304,,07,04,340,*7A
$GPGSA,A,1,,,,,,,,,,,,,140.0,99.0,99.0*35
$GPRMC,042900.05,V,,,,,,,300921,,,N*7E
$GPGGA,042901.04,5034.870068,N,03635.624740,E,1,06,2.4,217.4,M,17.3,M,,*60
$GPGSV,3,1,12,23,63,158,32,26,37,222,31,10,35,193,36,15,25,080,31*71
$GPGSV,3,2,12,29,19,122,39,13,16,051,24,18,68,064,,16,49,271,*7F
$GPGSV,3,3,12,27,33,302,,05,09,042,,08,05,304,,07,04,340,*7A
$GPGSA,A,3,10,15,26,,,,,,,,,,3.5,2.2,2.7*30
$GPRMC,042901.04,A,5034.870068,N,03635.624740,E,000.2,100.6,300921,,,A*5B
$GPGGA,042902.04,5034.870350,N,03635.622640,E,1,06,1.2,215.1,M,17.3,M,,*6E
$GPGSV,3,1,12,23,63,161,33,26,36,223,31,10,35,194,36,15,26,081,31*7F
$GPGSV,3,2,12,29,19,124,39,13,16,052,24,18,68,064,,16,48,272,*78
$GPGSV,3,3,12,27,33,302,,05,09,042,,08,05,305,,07,04,341,*7A
$GPGSA,A,3,10,15,26,,,,,,,,,,3.5,2.2,2.7*30
$GPRMC,042902.04,A,5034.870350,N,03635.622640,E,,,300921,,,A*52
$GPGGA,042903.00,5034.870350,N,03635.622640,E,1,06,1.6,207.6,M,17.3,M,,*6B
$GPGSV,3,1,12,23,63,161,33,26,36,223,31,10,35,194,36,15,26,081,31*7F
$GPGSV,3,2,12,29,19,124,39,13,16,052,24,18,68,064,,16,48,272,*78
$GPGSV,3,3,12,27,33,302,,05,09,042,,08,05,305,,07,04,341,*7A
$GPGSA,A,3,10,15,26,,,,,,,,,,7.5,3.1,6.8*3D
$GPRMC,042903.00,A,5034.870350,N,03635.622640,E,000.0,,300921,,,A*79
$GPGGA,042904.00,5034.870350,N,03635.622640,E,1,06,1.2,202.5,M,17.3,M,,*6E
$GPGSV,3,1,12,23,63,161,34,26,36,223,31,10,35,194,36,15,26,081,31*78
$GPGSV,3,2,12,29,19,124,39,13,16,052,24,18,68,064,,16,48,272,*78
$GPGSV,3,3,12,27,33,302,,05,09,042,,08,05,305,,07,04,341,*7A
$GPGSA,A,3,10,15,26,,,,,,,,,,3.5,2.2,2.7*30
$GPRMC,042904.00,A,5034.870350,N,03635.622640,E,000.0,,300921,,,A*7E
$GPGGA,042905.00,5034.870350,N,03635.622640,E,1,06,1.6,197.4,M,17.3,M,,*65
$GPGSV,3,1,12,23,63,161,34,26,36,223,31,10,35,194,36,15,26,081,31*78
$GPGSV,3,2,12,29,19,124,39,13,16,052,25,18,68,064,,16,48,272,*79
$GPGSV,3,3,12,27,33,302,,05,09,042,,08,05,305,,07,04,341,*7A
$GPGSA,A,3,10,15,26,,,,,,,,,,7.5,3.1,6.8*3D
$GPRMC,042905.00,A,5034.870350,N,03635.622640,E,000.0,,300921,,,A*7F
$GPGGA,042906.00,5034.870350,N,03635.622640,E,1,07,1.2,194.0,M,17.3,M,,*64
$GPGSV,3,1,12,23,63,161,34,26,36,223,31,10,35,194,36,15,26,081,32*7B
$GPGSV,3,2,12,29,19,124,39,13,16,052,25,18,68,064,,16,48,271,*7A
$GPGSV,3,3,12,27,33,302,,05,09,042,,08,05,305,,07,04,341,*7A
$GPGSA,A,3,10,15,26,,,,,,,,,,3.5,2.2,2.7*30
$GPRMC,042906.00,A,5034.870350,N,03635.622640,E,000.0,,300921,,,A*7C
$GPGGA,042907.00,5034.870350,N,03635.622640,E,1,07,1.2,191.0,M,17.3,M,,*60
$GPGSV,3,1,12,23,63,161,34,26,36,223,32,10,35,194,36,15,26,081,31*7B
$GPGSV,3,2,12,29,19,124,39,13,16,052,25,18,68,064,,16,48,271,*7A
$GPGSV,3,3,12,27,33,302,,05,09,042,,08,05,305,,07,04,341,*7A
$GPGSA,A,3,10,15,26,,,,,,,,,,3.5,2.2,2.7*30
$GPRMC,042907.00,A,5034.870350,N,03635.622640,E,000.0,,300921,,,A*7D
$GPGGA,042908.00,5034.870350,N,03635.622640,E,1,08,1.2,186.5,M,17.3,M,,*63
$GPGSV,3,1,12,23,63,161,34,26,36,223,32,10,35,194,36,15,26,081,31*7B
$GPGSV,3,2,12,29,19,124,39,13,16,052,25,18,68,064,,16,48,271,*7A
$GPGSV,3,3,12,27,33,302,,05,09,042,,08,05,305,,07,04,341,*7A
$GPGSA,A,3,10,15,26,,,,,,,,,,3.1,1.9,2.4*3F
$GPRMC,042908.00,A,5034.870350,N,03635.622640,E,000.0,,300921,,,A*72
$GPGGA,042909.00,5034.870350,N,03635.622640,E,1,08,1.6,180.9,M,17.3,M,,*6C
$GPGSV,3,1,12,23,63,161,34,26,36,223,32,10,35,194,36,15,26,081,31*7B
$GPGSV,3,2,12,29,19,124,39,13,16,052,26,18,68,064,,16,48,271,*79
$GPGSV,3,3,12,27,33,302,,05,09,042,,08,05,305,,07,04,341,*7A
$GPGSA,A,3,10,15,26,,,,,,,,,,3.9,3.4,1.9*36
$GPRMC,042909.00,A,5034.870350,N,03635.622640,E,000.0,,300921,,,A*73
$GPGGA,042910.00,5034.870350,N,03635.622640,E,1,08,1.6,180.7,M,17.3,M,,*6A
$GPGSV,3,1,12,23,63,161,34,26,36,223,32,10,35,194,36,15,26,081,31*7B
$GPGSV,3,2,12,29,19,124,39,13,16,052,26,18,68,064,,16,48,271,*79
$GPGSV,3,3,12,27,33,302,,05,09,042,,08,05,305,,07,04,341,*7A
$GPGSA,A,3,10,15,26,,,,,,,,,,3.4,2.7,2.0*33
$GPRMC,042910.00,A,5034.870350,N,03635.622640,E,000.0,,300921,,,A*7B
$GPGGA,042911.00,5034.870350,N,03635.622640,E,1,08,1.6,180.4,M,17.3,M,,*68
$GPGSV,3,1,12,23,63,161,34,26,36,223,33,10,35,194,36,15,26,081,31*7A
$GPGSV,3,2,12,29,19,124,39,13,16,052,27,05,09,042,07,18,68,064,*7A
$GPGSV,3,3,12,16,48,271,,27,33,302,,08,05,305,,07,04,341,*7F
$GPGSA,A,3,10,15,26,,,,,,,,,,3.4,2.7,2.0*33
$GPRMC,042911.00,A,5034.870350,N,03635.622640,E,000.0,,300921,,,A*7A
$GPGGA,042912.00,5034.870350,N,03635.622640,E,1,08,1.6,180.7,M,17.3,M,,*68
$GPGSV,3,1,12,23,63,161,34,26,36,223,33,10,35,194,36,15,26,081,31*7A
$GPGSV,3,2,12,29,19,124,39,13,16,052,26,05,09,042,07,18,68,064,*7B
$GPGSV,3,3,12,16,48,271,,27,33,302,,08,05,305,,07,04,341,*7F
$GPGSA,A,3,10,15,26,,,,,,,,,,3.4,2.7,2.0*33
$GPRMC,042912.00,A,5034.870350,N,03635.622640,E,000.0,,300921,,,A*79
$GPGGA,042913.00,5034.870350,N,03635.622640,E,1,08,1.2,181.4,M,17.3,M,,*6F
$GPGSV,3,1,12,23,63,161,34,26,36,223,33,10,35,194,36,15,26,081,31*7A
$GPGSV,3,2,12,29,19,124,39,13,16,052,26,05,09,042,07,18,68,064,*7B
$GPGSV,3,3,12,16,48,271,,27,33,302,,08,05,305,,07,04,341,*7F
$GPGSA,A,3,10,15,26,,,,,,,,,,3.4,2.7,2.0*33
$GPRMC,042913.00,A,5034.870350,N,03635.622640,E,000.0,,300921,,,A*78
$GPGGA,042914.00,5034.870350,N,03635.622640,E,1,08,1.2,182.0,M,17.3,M,,*6F
$GPGSV,3,1,12,23,63,161,35,26,36,223,32,10,35,194,36,15,26,081,31*7A
$GPGSV,3,2,12,29,19,124,39,13,16,052,27,05,09,042,07,18,68,064,*7A
$GPGSV,3,3,12,16,48,271,,27,33,302,,08,05,305,,07,04,341,*7F
$GPGSA,A,3,10,15,26,,,,,,,,,,2.9,2.4,1.7*38
$GPRMC,042914.00,A,5034.870350,N,03635.622640,E,000.0,,300921,,,A*7F
$GPGGA,042915.00,5034.870350,N,03635.622640,E,1,08,1.2,182.2,M,17.3,M,,*6C
$GPGSV,3,1,12,23,63,160,35,26,36,223,32,10,35,194,36,15,26,081,31*7B
$GPGSV,3,2,12,29,19,124,39,13,16,052,27,05,09,042,10,18,68,064,*7C
$GPGSV,3,3,12,16,48,271,,27,33,302,,08,05,305,,07,04,341,*7F
$GPGSA,A,3,10,15,26,,,,,,,,,,2.9,2.4,1.7*38
$GPRMC,042915.00,A,5034.870350,N,03635.622640,E,000.0,,300921,,,A*7E
$GPGGA,042916.00,5034.870350,N,03635.622640,E,1,08,1.2,182.3,M,17.3,M,,*6E
$GPGSV,3,1,12,23,63,160,35,26,36,223,32,10,35,194,36,15,26,081,30*7A
$GPGSV,3,2,12,29,19,124,39,13,16,052,27,05,09,042,10,18,68,064,*7C
$GPGSV,3,3,12,16,48,271,,27,33,302,,08,05,305,,07,04,341,*7F
$GPGSA,A,3,10,15,26,,,,,,,,,,3.4,2.7,2.0*33
$GPRMC,042916.00,A,5034.870350,N,03635.622640,E,000.0,,300921,,,A*7D
$GPGGA,042917.00,5034.870350,N,03635.622640,E,1,08,1.2,182.8,M,17.3,M,,*64
$GPGSV,3,1,12,23,63,160,34,26,36,223,32,10,35,194,36,15,26,081,30*7B
$GPGSV,3,2,12,29,19,124,39,13,16,052,28,05,09,042,10,18,68,064,*73
$GPGSV,3,3,12,16,48,271,,27,33,302,,08,05,305,,07,04,341,*7F
$GPGSA,A,3,10,15,26,,,,,,,,,,2.9,2.4,1.7*38
$GPRMC,042917.00,A,5034.870350,N,03635.622640,E,000.0,,300921,,,A*7C
$GPGGA,042918.00,5034.870350,N,03635.622640,E,1,08,1.2,183.1,M,17.3,M,,*63
$GPGSV,3,1,12,23,63,160,34,26,36,223,32,10,35,194,36,15,26,081,30*7B
$GPGSV,3,2,12,29,19,124,39,13,16,052,28,05,09,042,09,18,68,064,*7B
$GPGSV,3,3,12,16,48,271,,27,33,302,,08,05,305,,07,04,341,*7F
$GPGSA,A,3,10,15,26,,,,,,,,,,2.9,2.4,1.7*38
$GPRMC,042918.00,A,5034.870350,N,03635.622640,E,000.0,,300921,,,A*73
$GPGGA,042919.00,5034.870350,N,03635.622640,E,1,09,1.2,182.6,M,17.3,M,,*65
$GPGSV,3,1,12,23,63,160,35,26,36,223,32,10,35,194,36,15,26,081,30*7A
$GPGSV,3,2,12,29,19,124,39,13,16,052,28,05,09,042,08,18,68,064,*7A
$GPGSV,3,3,12,16,48,271,,27,33,302,,08,05,305,,07,04,341,*7F
$GPGSA,A,3,10,15,26,,,,,,,,,,3.7,2.7,2.4*34
$GPRMC,042919.00,A,5034.870350,N,03635.622640,E,000.0,,300921,,,A*72
$GPGGA,042920.00,5034.870350,N,03635.622640,E,1,09,1.2,182.8,M,17.3,M,,*61
$GPGSV,3,1,12,23,63,160,35,26,36,223,32,10,35,194,36,15,26,081,30*7A
$GPGSV,3,2,12,29,19,124,39,13,16,052,29,18,68,064,,16,48,271,*76
$GPGSV,3,3,12,27,33,302,,05,09,042,,08,05,305,,07,04,341,*7A
$GPGSA,A,3,10,15,26,,,,,,,,,,3.7,2.7,2.4*34
$GPRMC,042920.00,A,5034.870350,N,03635.622640,E,000.0,,300921,,,A*78
$GPGGA,042921.00,5034.870350,N,03635.622640,E,1,09,1.2,184.4,M,17.3,M,,*6A
$GPGSV,3,1,12,23,63,160,35,26,36,223,32,10,35,194,36,15,26,081,30*7A
$GPGSV,3,2,12,29,18,124,39,13,16,052,28,18,68,064,,16,48,271,*76
$GPGSV,3,3,12,27,33,302,,05,09,042,,08,05,305,,07,04,341,*7A
$GPGSA,A,3,10,15,26,,,,,,,,,,4.4,2.7,3.5*30
$GPRMC,042921.00,A,5034.870350,N,03635.622640,E,000.0,,300921,,,A*79
$GPGGA,042922.00,5034.870350,N,03635.622640,E,1,09,1.2,184.7,M,17.3,M,,*6A
$GPGSV,3,1,12,23,63,160,35,26,36,223,32,10,35,194,36,15,26,081,30*7A
$GPGSV,3,2,12,29,18,124,39,13,16,052,28,18,68,064,,16,48,271,*76
$GPGSV,3,3,12,27,33,302,,05,09,042,,08,05,305,,07,04,341,*7A
$GPGSA,A,3,10,15,26,,,,,,,,,,3.7,2.7,2.4*34
$GPRMC,042922.00,A,5034.870350,N,03635.622640,E,000.0,,300921,,,A*7A
$GPGGA,042923.00,5034.870350,N,03635.622640,E,1,09,1.2,184.9,M,17.3,M,,*65
$GPGSV,3,1,12,23,63,160,35,26,36,223,32,10,35,194,36,15,26,081,29*72
$GPGSV,3,2,12,29,18,124,39,13,16,052,28,18,68,064,,16,48,271,*76
$GPGSV,3,3,12,27,33,302,,05,09,042,,08,05,305,,07,04,341,*7A
$GPGSA,A,3,10,15,26,,,,,,,,,,3.7,2.7,2.4*34
$GPRMC,042923.00,A,5034.870350,N,03635.622640,E,000.0,,300921,,,A*7B
$GPGGA,042924.00,5034.870350,N,03635.622640,E,1,09,1.2,184.3,M,17.3,M,,*68
$GPGSV,3,1,12,23,63,160,36,26,36,223,32,10,35,194,36,15,26,081,29*71
$GPGSV,3,2,12,29,18,124,39,13,16,052,28,18,68,064,,16,48,271,*76
$GPGSV,3,3,12,27,33,302,,05,09,042,,08,05,305,,07,04,341,*7A
$GPGSA,A,3,10,15,26,,,,,,,,,,3.7,2.7,2.4*34
$GPRMC,042924.00,A,5034.870350,N,03635.622640,E,000.0,,300921,,,A*7C
$GPGGA,042925.00,5034.870350,N,03635.622640,E,1,09,1.2,183.3,M,17.3,M,,*6E
$GPGSV,3,1,12,23,63,160,36,26,36,223,32,10,35,194,36,15,26,081,29*71
$GPGSV,3,2,12,29,18,124,39,13,16,052,28,18,68,064,,16,48,271,*76
$GPGSV,3,3,12,27,33,302,,05,09,042,,08,05,305,,07,04,341,*7A
$GPGSA,A,3,10,15,26,,,,,,,,,,3.7,2.7,2.4*34
$GPRMC,042925.00,A,5034.870350,N,03635.622640,E,000.0,,300921,,,A*7D
$GPGGA,042926.00,5034.870350,N,03635.622640,E,1,09,1.2,182.2,M,17.3,M,,*6D
$GPGSV,3,1,12,23,63,160,36,26,36,223,32,10,35,194,36,15,26,081,29*71
$GPGSV,3,2,12,29,18,124,39,13,16,052,28,18,68,064,,16,48,271,*76
$GPGSV,3,3,12,27,33,302,,05,09,042,,08,05,305,,07,04,341,*7A
$GPGSA,A,3,10,15,26,,,,,,,,,,3.7,2.7,2.4*34
$GPRMC,042926.00,A,5034.870350,N,03635.622640,E,000.0,,300921,,,A*7E
$GPGGA,042927.00,5034.870350,N,03635.622640,E,1,09,1.2,181.2,M,17.3,M,,*6F
$GPGSV,3,1,12,23,63,160,36,26,36,223,32,10,35,194,36,15,26,081,29*71
$GPGSV,3,2,12,29,18,124,39,13,16,052,28,18,68,064,,16,48,271,*76
$GPGSV,3,3,12,27,33,302,,05,09,042,,08,05,305,,07,04,341,*7A
$GPGSA,A,3,10,15,26,,,,,,,,,,3.7,2.7,2.4*34
$GPRMC,042927.00,A,5034.870350,N,03635.622640,E,000.0,,300921,,,A*7F
$GPGGA,042928.00,5034.870350,N,03635.622640,E,1,09,1.2,179.9,M,17.3,M,,*6C
$GPGSV,3,1,12,23,63,160,36,26,36,223,32,10,35,194,36,15,26,081,29*71
$GPGSV,3,2,12,29,18,124,39,13,16,052,28,18,68,064,,16,48,271,*76
$GPGSV,3,3,12,27,33,302,,05,09,042,,08,05,305,,07,04,341,*7A
$GPGSA,A,3,10,15,26,,,,,,,,,,3.7,2.7,2.4*34
$GPRMC,042928.00,A,5034.870350,N,03635.622640,E,000.0,,300921,,,A*70
$GPGGA,042929.00,5034.870350,N,03635.622640,E,1,09,1.2,178.6,M,17.3,M,,*63
$GPGSV,3,1,12,23,63,160,36,26,36,223,32,10,35,194,35,15,26,081,29*72
$GPGSV,3,2,12,29,18,124,39,13,16,052,28,18,68,064,,16,48,271,*76
$GPGSV,3,3,12,27,33,302,,05,09,042,,08,05,305,,07,04,341,*7A
$GPGSA,A,3,10,15,26,,,,,,,,,,3.7,2.7,2.4*34
$GPRMC,042929.00,A,5034.870350,N,03635.622640,E,000.0,,300921,,,A*71
$GPGGA,042930.00,5034.870350,N,03635.622640,E,1,09,1.2,177.7,M,17.3,M,,*65
$GPGSV,3,1,12,23,63,160,36,26,36,223,32,10,35,194,35,15,26,081,29*72
$GPGSV,3,2,12,29,18,124,39,13,16,052,28,18,68,064,,16,48,271,*76
$GPGSV,3,3,12,27,33,302,,05,09,042,,08,05,305,,07,04,341,*7A
$GPGSA,A,3,10,15,26,,,,,,,,,,3.7,2.7,2.4*34
$GPRMC,042930.00,A,5034.870350,N,03635.622640,E,000.0,,300921,,,A*79
$GPGGA,042931.00,5034.870350,N,03635.622640,E,1,10,1.2,180.0,M,17.3,M,,*63
$GPGSV,3,1,12,23,63,160,36,26,36,223,32,10,35,194,35,15,26,081,29*72
$GPGSV,3,2,12,29,18,124,39,13,16,052,28,18,68,064,,16,48,271,*76
$GPGSV,3,3,12,27,33,302,,05,09,042,,08,05,305,,07,04,341,*7A
$GPGSA,A,3,10,15,26,29,,,,,,,,,3.6,2.4,2.7*3E
$GPRMC,042931.00,A,5034.870350,N,03635.622640,E,000.0,,300921,,,A*78
$GPGGA,042932.00,5034.870350,N,03635.622640,E,1,10,1.2,180.0,M,17.3,M,,*60
$GPGSV,3,1,12,23,63,160,36,26,36,223,32,10,35,194,35,15,26,081,29*72
$GPGSV,3,2,12,29,18,124,39,13,16,052,28,18,68,064,,16,48,271,*76
$GPGSV,3,3,12,27,33,302,,05,09,042,,08,05,305,,07,04,341,*7A
$GPGSA,A,3,10,15,26,29,,,,,,,,,3.6,2.4,2.7*3E
$GPRMC,042932.00,A,5034.870350,N,03635.622640,E,000.0,,300921,,,A*7B
$GPGGA,042933.00,5034.870350,N,03635.622640,E,1,10,1.2,180.0,M,17.3,M,,*61
$GPGSV,3,1,12,23,63,160,36,26,36,223,32,10,35,194,35,15,26,081,29*72
$GPGSV,3,2,12,29,18,124,39,13,16,052,28,18,68,064,,16,48,271,*76
$GPGSV,3,3,12,27,33,302,,05,09,042,,08,05,305,,07,04,341,*7A
$GPGSA,A,3,10,15,26,29,,,,,,,,,3.6,2.4,2.7*3E
$GPRMC,042933.00,A,5034.870350,N,03635.622640,E,000.0,,300921,,,A*7A
$GPGGA,042934.00,5034.870350,N,03635.622640,E,1,10,1.2,180.0,M,17.3,M,,*66
$GPGSV,3,1,12,23,63,160,36,26,36,223,32,10,35,194,35,15,26,081,29*72
$GPGSV,3,2,12,29,18,124,39,13,16,052,28,18,68,064,,16,48,271,*76
$GPGSV,3,3,12,27,33,302,,05,09,042,,08,05,305,,07,04,341,*7A
$GPGSA,A,3,10,15,26,29,,,,,,,,,3.6,2.4,2.7*3E
$GPRMC,042934.00,A,5034.870350,N,03635.622640,E,000.0,,300921,,,A*7D
$GPGGA,042935.00,5034.870350,N,03635.622640,E,1,10,1.2,180.1,M,17.3,M,,*66
$GPGSV,3,1,12,23,63,160,37,26,36,223,32,10,35,194,35,15,26,081,29*73
$GPGSV,3,2,12,29,18,124,38,13,16,052,28,18,68,064,,16,48,271,*77
$GPGSV,3,3,12,27,33,302,,05,09,042,,08,05,305,,07,04,341,*7A
$GPGSA,A,3,10,15,26,29,,,,,,,,,3.6,2.4,2.7*3E
$GPRMC,042935.00,A,5034.870350,N,03635.622640,E,000.0,,300921,,,A*7C
$GPGGA,042936.00,5034.870350,N,03635.622640,E,1,10,1.2,180.1,M,17.3,M,,*65
$GPGSV,3,1,12,23,63,160,37,26,36,223,32,10,35,194,35,15,26,081,28*72
$GPGSV,3,2,12,29,18,124,38,13,16,052,27,18,68,064,,16,48,271,*78
$GPGSV,3,3,12,27,33,302,,05,09,042,,08,05,305,,07,04,341,*7A
$GPGSA,A,3,10,15,26,29,,,,,,,,,3.6,2.4,2.7*3E
$GPRMC,042936.00,A,5034.870350,N,03635.622640,E,000.0,,300921,,,A*7F
$GPGGA,042937.00,5034.870350,N,03635.622640,E,1,10,1.2,180.1,M,17.3,M,,*64
$GPGSV,3,1,12,23,63,160,37,26,36,223,32,10,35,194,35,15,26,081,28*72
$GPGSV,3,2,12,29,18,124,38,13,16,052,27,18,68,064,,16,48,271,*78
$GPGSV,3,3,12,27,33,302,,05,09,042,,08,05,305,,07,04,341,*7A
$GPGSA,A,3,10,15,26,29,,,,,,,,,3.6,2.4,2.7*3E
$GPRMC,042937.00,A,5034.870350,N,03635.622640,E,000.0,,300921,,,A*7E
$GPGGA,042938.00,5034.870350,N,03635.622640,E,1,10,1.2,180.2,M,17.3,M,,*68
$GPGSV,3,1,12,23,63,160,36,26,36,223,32,10,35,194,35,15,26,081,28*73
$GPGSV,3,2,12,29,18,124,38,27,33,302,07,13,16,052,27,18,68,064,*74
$GPGSV,3,3,12,16,48,271,,05,09,042,,08,05,305,,07,04,341,*71
$GPGSA,A,3,10,15,26,29,,,,,,,,,3.6,2.4,2.7*3E
$GPRMC,042938.00,A,5034.870350,N,03635.622640,E,000.0,,300921,,,A*71
$GPGGA,042939.00,5034.870350,N,03635.622640,E,1,10,1.2,180.2,M,17.3,M,,*69
$GPGSV,3,1,12,23,63,160,36,26,36,223,33,10,35,194,34,15,26,081,28*73
$GPGSV,3,2,12,29,18,124,38,27,33,302,07,13,16,052,27,18,68,064,*74
$GPGSV,3,3,12,16,48,271,,05,09,042,,08,05,305,,07,04,341,*71
$GPGSA,A,3,10,15,26,29,,,,,,,,,3.6,2.4,2.7*3E
$GPRMC,042939.00,A,5034.870350,N,03635.622640,E,000.0,,300921,,,A*70
$GPGGA,042940.00,5034.870350,N,03635.622640,E,1,10,1.2,180.3,M,17.3,M,,*66
$GPGSV,3,1,12,23,63,160,36,26,36,223,32,10,35,194,34,15,26,081,28*72
$GPGSV,3,2,12,29,18,124,38,27,33,302,08,13,16,052,27,18,68,064,*7B
$GPGSV,3,3,12,16,48,271,,05,09,042,,08,05,305,,07,04,341,*71
$GPGSA,A,3,10,15,26,29,,,,,,,,,3.6,2.4,2.7*3E
$GPRMC,042940.00,A,5034.870350,N,03635.622640,E,000.0,,300921,,,A*7E
$GPGGA,042941.00,5034.870350,N,03635.622640,E,1,10,1.2,180.3,M,17.3,M,,*67
$GPGSV,3,1,12,23,63,160,36,26,36,223,33,10,35,194,34,15,26,081,28*73
$GPGSV,3,2,12,29,18,124,37,27,33,302,09,13,16,052,27,18,68,064,*75
$GPGSV,3,3,12,16,48,271,,05,09,042,,08,05,305,,07,04,341,*71
$GPGSA,A,3,10,15,26,29,,,,,,,,,3.6,2.4,2.7*3E
$GPRMC,042941.00,A,5034.870350,N,03635.622640,E,000.0,,300921,,,A*7F
$GPGGA,042942.00,5034.870350,N,03635.622640,E,1,10,1.2,180.4,M,17.3,M,,*63
$GPGSV,3,1,12,23,63,160,36,26,36,223,33,10,35,194,34,15,26,081,28*73
$GPGSV,3,2,12,29,18,124,37,27,33,302,09,13,16,052,27,18,68,064,*75
$GPGSV,3,3,12,16,48,271,,05,09,042,,08,05,305,,07,04,341,*71
$GPGSA,A,3,10,15,26,29,,,,,,,,,3.6,2.4,2.7*3E
$GPRMC,042942.00,A,5034.870350,N,03635.622640,E,000.0,,300921,,,A*7C
$GPGGA,042943.00,5034.870350,N,03635.622640,E,1,10,1.2,180.4,M,17.3,M,,*62
$GPGSV,3,1,12,23,63,160,36,26,36,223,33,10,35,194,35,15,26,081,27*7D
$GPGSV,3,2,12,29,18,124,37,27,33,302,08,13,16,052,27,18,68,064,*74
$GPGSV,3,3,12,16,48,271,,05,09,042,,08,05,305,,07,04,341,*71
$GPGSA,A,3,10,15,26,29,,,,,,,,,3.4,2.0,2.7*38
$GPRMC,042943.00,A,5034.870350,N,03635.622640,E,000.0,,300921,,,A*7D
$GPGGA,042944.00,5034.870350,N,03635.622640,E,1,10,1.2,180.5,M,17.3,M,,*64
$GPGSV,3,1,12,23,63,160,36,26,36,223,33,10,35,194,35,15,26,081,27*7D
$GPGSV,3,2,12,29,18,124,37,27,33,302,08,13,16,052,27,18,68,064,*74
$GPGSV,3,3,12,16,48,271,,05,09,042,,08,05,305,,07,04,341,*71
$GPGSA,A,3,10,15,26,29,,,,,,,,,3.4,2.0,2.7*38
$GPRMC,042944.00,A,5034.870350,N,03635.622640,E,000.0,,300921,,,A*7A
$GPGGA,042945.00,5034.870350,N,03635.622640,E,1,10,1.2,180.5,M,17.3,M,,*65
$GPGSV,3,1,12,23,63,160,36,26,36,223,33,10,35,194,35,15,26,081,26*7C
$GPGSV,3,2,12,29,18,124,37,27,33,302,08,13,16,052,27,18,68,064,*74
$GPGSV,3,3,12,16,48,271,,05,09,042,,08,05,305,,07,04,341,*71
$GPGSA,A,3,10,15,26,29,,,,,,,,,3.4,2.0,2.7*38
$GPRMC,042945.00,A,5034.870350,N,03635.622640,E,000.0,,300921,,,A*7B
$GPGGA,042946.00,5034.870350,N,03635.622640,E,1,10,0.8,180.6,M,17.3,M,,*6E
$GPGSV,3,1,12,23,63,160,36,26,36,223,33,10,35,194,35,15,26,081,26*7C
$GPGSV,3,2,12,29,18,124,37,27,33,302,08,13,16,052,27,18,68,064,*74
$GPGSV,3,3,12,16,48,271,,05,09,042,,08,05,305,,07,04,341,*71
$GPGSA,A,3,10,15,26,29,,,,,,,,,2.8,1.4,2.4*31
$GPRMC,042946.00,A,5034.870350,N,03635.622640,E,000.0,,300921,,,A*78
$GPGGA,042947.00,5034.870350,N,03635.622640,E,1,10,0.8,180.6,M,17.3,M,,*6F
$GPGSV,3,1,12,23,63,160,36,26,36,223,33,10,35,194,36,15,26,081,25*7C
$GPGSV,3,2,12,29,18,124,36,27,33,302,07,13,16,052,27,05,09,042,07*72
$GPGSV,3,3,12,18,68,064,,16,48,271,,08,05,305,,07,04,341,*7E
$GPGSA,A,3,10,15,26,29,,,,,,,,,2.8,1.4,2.4*31
$GPRMC,042947.00,A,5034.870350,N,03635.622640,E,000.0,,300921,,,A*79
$GPGGA,042948.00,5034.870350,N,03635.622640,E,1,10,1.2,180.7,M,17.3,M,,*6A
$GPGSV,3,1,12,23,63,160,36,26,36,223,33,10,35,194,36,15,26,081,25*7C
$GPGSV,3,2,12,29,18,124,36,13,16,052,28,05,09,042,07,18,68,064,*7B
$GPGSV,3,3,12,16,48,271,,27,33,302,,08,05,305,,07,04,341,*7F
$GPGSA,A,3,10,15,26,29,,,,,,,,,3.5,2.3,2.7*3A
$GPRMC,042948.00,A,5034.870350,N,03635.622640,E,000.0,,300921,,,A*76
$GPGGA,042949.00,5034.870350,N,03635.622640,E,1,11,0.8,180.7,M,17.3,M,,*61
$GPGSV,3,1,12,23,63,160,36,26,36,223,33,10,35,194,36,15,26,081,25*7C
$GPGSV,3,2,12,29,18,124,36,13,16,052,28,05,09,042,07,18,68,064,*7B
$GPGSV,3,3,12,16,48,271,,27,33,302,,08,05,305,,07,04,341,*7F
$GPGSA,A,3,10,13,15,26,29,,,,,,,,2.8,1.4,2.4*33
$GPRMC,042949.00,A,5034.870350,N,03635.622640,E,000.0,,300921,,,A*77
$GPGGA,042950.00,5034.870350,N,03635.622640,E,1,11,0.8,180.8,M,17.3,M,,*66
$GPGSV,3,1,12,23,63,160,36,26,36,223,33,10,35,194,36,15,26,081,24*7D
$GPGSV,3,2,12,29,18,124,36,13,16,052,28,05,09,042,07,18,68,064,*7B
$GPGSV,3,3,12,16,48,271,,27,33,302,,08,05,305,,07,04,341,*7F
$GPGSA,A,3,10,13,15,26,29,,,,,,,,2.8,1.4,2.4*33
$GPRMC,042950.00,A,5034.870350,N,03635.622640,E,000.0,,300921,,,A*7F
$GPGGA,042951.00,5034.870350,N,03635.622640,E,1,11,1.6,180.9,M,17.3,M,,*69
$GPGSV,3,1,12,23,63,160,36,26,36,223,33,10,35,194,36,15,26,081,24*7D
$GPGSV,3,2,12,29,18,124,36,13,16,052,28,05,09,042,09,18,68,064,*75
$GPGSV,3,3,12,16,48,271,,27,33,302,,08,05,305,,07,04,341,*7F
$GPGSA,A,3,10,13,15,26,29,,,,,,,,10.7,2.9,10.3*35
$GPRMC,042951.00,A,5034.870350,N,03635.622640,E,000.0,,300921,,,A*7E
$GPGGA,042952.00,5034.866565,N,03635.622484,E,1,11,0.6,181.0,M,17.3,M,,*6E
$GPGSV,3,1,12,23,63,160,36,26,36,223,33,10,35,194,36,15,26,081,23*7A
$GPGSV,3,2,12,29,18,124,36,13,16,052,28,05,09,042,10,18,68,064,*7D
$GPGSV,3,3,12,16,48,271,,27,33,302,,08,05,305,,07,04,341,*7F
$GPGSA,A,3,10,13,15,26,29,,,,,,,,2.3,1.4,1.8*37
$GPRMC,042952.00,A,5034.866565,N,03635.622484,E,000.0,,300921,,,A*70
$GPGGA,042953.00,5034.866565,N,03635.622484,E,1,11,0.6,181.0,M,17.3,M,,*6F
$GPGSV,3,1,12,23,63,160,36,26,36,223,33,10,35,194,36,15,26,081,22*7B
$GPGSV,3,2,12,29,18,124,36,13,16,052,29,16,48,271,08,05,09,042,09*76
$GPGSV,3,3,12,18,68,064,,27,33,302,,08,05,305,,07,04,341,*75
$GPGSA,A,3,10,13,15,26,29,,,,,,,,2.3,1.4,1.8*37
$GPRMC,042953.00,A,5034.866565,N,03635.622484,E,000.0,,300921,,,A*71
$GPGGA,042954.00,5034.866565,N,03635.622484,E,1,11,0.8,181.1,M,17.3,M,,*67
$GPGSV,3,1,12,23,63,160,36,26,36,223,33,10,35,194,36,15,26,081,21*78
$GPGSV,3,2,12,29,18,124,36,13,16,052,29,16,48,271,08,05,09,042,09*76
$GPGSV,3,3,12,18,68,064,,27,33,302,,08,05,305,,07,04,341,*75
$GPGSA,A,3,10,13,15,26,29,,,,,,,,2.7,1.5,2.3*3A
$GPRMC,042954.00,A,5034.866565,N,03635.622484,E,000.0,,300921,,,A*76
$GPGGA,042955.00,5034.866565,N,03635.622484,E,1,11,0.8,181.2,M,17.3,M,,*65
$GPGSV,3,1,12,23,63,160,36,26,36,223,33,10,35,194,36,15,26,081,21*78
$GPGSV,3,2,12,29,18,124,35,13,16,052,28,16,48,271,08,05,09,042,08*75
$GPGSV,3,3,12,18,68,064,,27,33,302,,08,05,305,,07,04,341,*75
$GPGSA,A,3,10,13,15,26,29,,,,,,,,2.5,1.3,2.1*3C
$GPRMC,042955.00,A,5034.866565,N,03635.622484,E,000.0,,300921,,,A*77
$GPGGA,042956.00,5034.866565,N,03635.622484,E,1,11,1.2,181.4,M,17.3,M,,*6B
$GPGSV,3,1,12,23,63,160,36,26,36,223,33,10,35,194,36,15,26,081,20*79
$GPGSV,3,2,12,29,18,124,35,13,16,052,28,16,48,271,08,18,68,064,*72
$GPGSV,3,3,12,27,33,302,,05,09,042,,08,05,305,,07,04,340,*7B
$GPGSA,A,3,10,13,15,26,29,,,,,,,,2.1,1.3,1.7*3D
$GPRMC,042956.00,A,5034.866565,N,03635.622484,E,000.0,,300921,,,A*74
$GPGGA,042957.00,5034.866565,N,03635.622484,E,1,11,0.6,181.5,M,17.3,M,,*6E
$GPGSV,3,1,12,23,63,160,36,26,36,223,33,10,35,194,36,15,26,081,19*73
$GPGSV,3,2,12,29,18,124,35,13,16,052,28,16,48,271,08,18,68,064,*72
$GPGSV,3,3,12,27,33,302,,05,09,042,,08,05,305,,07,04,340,*7B
$GPGSA,A,3,10,13,15,26,29,,,,,,,,2.5,1.3,2.1*3C
$GPRMC,042957.00,A,5034.866565,N,03635.622484,E,000.0,,300921,,,A*75
$GPGGA,042958.00,5034.866565,N,03635.622484,E,1,11,0.8,181.6,M,17.3,M,,*6C
$GPGSV,3,1,12,23,63,160,36,26,36,223,33,10,35,194,36,15,26,081,19*73
$GPGSV,3,2,12,29,18,124,35,13,16,052,29,16,48,271,08,18,68,064,*73
$GPGSV,3,3,12,27,33,302,,05,09,042,,08,05,305,,07,04,340,*7B
$GPGSA,A,3,10,13,15,26,29,,,,,,,,5.4,1.8,5.2*35
$GPRMC,042958.00,A,5034.866565,N,03635.622484,E,000.0,,300921,,,A*7A
$GPGGA,042959.00,5034.866565,N,03635.622484,E,1,11,0.8,181.7,M,17.3,M,,*6C
$GPGSV,3,1,12,23,63,160,37,26,36,223,33,10,35,194,36,15,26,081,18*73
$GPGSV,3,2,12,29,18,124,35,13,16,052,28,16,48,271,08,18,68,064,*72
$GPGSV,3,3,12,27,33,302,,05,09,042,,08,05,305,,07,04,340,*7B
$GPGSA,A,3,10,13,15,26,29,,,,,,,,5.3,1.7,5.1*3E
$GPRMC,042959.00,A,5034.866565,N,03635.622484,E,000.0,,300921,,,A*7B
$GPGGA,043000.00,5034.866565,N,03635.622484,E,1,11,0.8,181.8,M,17.3,M,,*67
$GPGSV,3,1,12,23,63,160,37,26,36,223,32,10,35,194,36,15,26,081,18*72
$GPGSV,3,2,12,29,18,124,36,13,16,052,28,16,48,271,07,18,68,064,*7E
$GPGSV,3,3,12,27,33,302,,05,09,042,,08,05,305,,07,04,340,*7B
$GPGSA,A,3,10,13,15,26,29,,,,,,,,5.3,1.7,5.1*3E
$GPRMC,043000.00,A,5034.866565,N,03635.622484,E,000.0,,300921,,,A*7F
$GPGGA,043001.00,5034.866565,N,03635.622484,E,1,11,0.8,181.9,M,17.3,M,,*67
$GPGSV,3,1,12,23,63,160,37,26,36,223,32,10,35,194,36,15,26,081,17*7D
$GPGSV,3,2,12,29,18,124,36,13,16,052,28,16,48,271,07,08,05,305,09*79
$GPGSV,3,3,12,18,68,064,,27,33,302,,05,09,042,,07,04,340,*75
$GPGSA,A,3,10,13,15,26,29,,,,,,,,5.3,1.7,5.0*3F
$GPRMC,043001.00,A,5034.866565,N,03635.622484,E,000.0,,300921,,,A*7E
$GPGGA,043002.00,5034.866565,N,03635.622484,E,1,11,0.8,182.1,M,17.3,M,,*6F
$GPGSV,3,1,12,23,63,160,37,26,36,223,32,10,35,194,36,15,26,081,17*7D
$GPGSV,3,2,12,29,18,124,36,13,16,052,28,16,48,271,07,08,05,305,10*71
$GPGSV,3,3,12,18,68,064,,27,33,302,,05,09,042,,07,04,340,*75
$GPGSA,A,3,10,13,15,26,29,,,,,,,,5.3,1.7,5.0*3F
$GPRMC,043002.00,A,5034.866565,N,03635.622484,E,000.0,,300921,,,A*7D
$GPGGA,043003.00,5034.866565,N,03635.622484,E,1,11,1.2,182.2,M,17.3,M,,*66
$GPGSV,3,1,12,23,63,160,37,26,36,223,32,10,35,194,36,15,26,081,17*7D
$GPGSV,3,2,12,29,18,124,36,13,16,052,28,08,05,305,10,18,68,064,*7C
$GPGSV,3,3,12,16,48,271,,27,33,302,,05,09,042,,07,04,340,*7F
$GPGSA,A,3,10,13,15,26,29,,,,,,,,5.3,1.7,5.0*3F
$GPRMC,043003.00,A,5034.866565,N,03635.622484,E,000.0,,300921,,,A*7C
$GPGGA,043004.00,5034.866565,N,03635.622484,E,1,11,1.2,182.3,M,17.3,M,,*60
$GPGSV,3,1,12,23,63,160,37,26,36,223,32,10,35,194,36,15,26,081,17*7D
$GPGSV,3,2,12,29,18,124,36,13,16,052,28,08,05,305,10,18,68,064,*7C
$GPGSV,3,3,12,16,48,271,,27,33,302,,05,09,042,,07,04,340,*7F
$GPGSA,A,3,10,13,15,26,29,,,,,,,,5.3,1.7,5.0*3F
$GPRMC,043004.00,A,5034.866565,N,03635.622484,E,000.0,,300921,,,A*7B
$GPGGA,043005.00,5034.866565,N,03635.622484,E,1,11,1.2,182.4,M,17.3,M,,*66
$GPGSV,3,1,12,23,63,160,37,26,36,223,32,10,35,194,36,15,26,081,17*7D
$GPGSV,3,2,12,29,18,124,36,13,16,052,28,08,05,305,11,18,68,064,*7D
$GPGSV,3,3,12,16,48,271,,27,33,302,,05,09,042,,07,04,340,*7F
$GPGSA,A,3,10,13,15,26,29,,,,,,,,5.3,1.7,5.0*3F
$GPRMC,043005.00,A,5034.866565,N,03635.622484,E,000.0,,300921,,,A*7A
$GPGGA,043006.00,5034.866565,N,03635.622484,E,1,11,0.8,182.6,M,17.3,M,,*6C
$GPGSV,3,1,12,23,63,160,36,26,36,223,32,10,35,194,36,15,26,081,16*7D
$GPGSV,3,2,12,29,18,124,36,13,16,052,28,08,05,305,11,18,68,064,*7D
$GPGSV,3,3,12,16,48,271,,27,33,302,,05,09,042,,07,04,340,*7F
$GPGSA,A,3,10,13,15,26,29,,,,,,,,5.4,1.8,5.1*36
$GPRMC,043006.00,A,5034.866565,N,03635.622484,E,000.0,,300921,,,A*79
$GPGGA,043007.00,5034.866565,N,03635.622484,E,1,11,0.8,182.7,M,17.3,M,,*6C
$GPGSV,3,1,12,23,63,160,36,26,36,223,32,10,35,194,36,15,26,081,16*7D
$GPGSV,3,2,12,29,18,124,36,13,16,052,28,08,05,305,11,18,68,064,*7D
$GPGSV,3,3,12,16,48,271,,27,33,302,,05,09,042,,07,04,340,*7F
$GPGSA,A,3,10,13,15,26,29,,,,,,,,5.3,1.7,5.0*3F
$GPRMC,043007.00,A,5034.866565,N,03635.622484,E,000.0,,300921,,,A*78
$GPGGA,043008.00,5034.866565,N,03635.622484,E,1,11,0.8,182.9,M,17.3,M,,*6D
$GPGSV,3,1,12,23,63,160,36,26,36,223,32,10,35,194,36,15,26,081,16*7D
$GPGSV,3,2,12,29,18,124,36,13,16,052,27,08,05,305,12,18,68,064,*71
$GPGSV,3,3,12,16,48,271,,27,33,302,,05,09,042,,07,04,340,*7F
$GPGSA,A,3,10,13,15,26,29,,,,,,,,5.3,1.7,5.0*3F
$GPRMC,043008.00,A,5034.866565,N,03635.622484,E,000.0,,300921,,,A*77
$GPGGA,043009.00,5034.866565,N,03635.622484,E,1,11,1.6,183.0,M,17.3,M,,*6B
$GPGSV,3,1,12,23,63,160,36,26,36,223,32,10,35,194,36,15,26,081,16*7D
$GPGSV,3,2,12,29,18,124,36,13,16,052,27,08,05,305,14,18,68,064,*77
$GPGSV,3,3,12,16,48,271,,27,33,302,,05,09,042,,07,04,340,*7F
$GPGSA,A,3,10,13,15,26,29,,,,,,,,10.7,2.9,10.3*35
$GPRMC,043009.00,A,5034.866565,N,03635.622484,E,000.0,,300921,,,A*76
$GPGGA,043010.00,5034.866565,N,03635.622484,E,1,11,0.6,183.2,M,17.3,M,,*60
$GPGSV,3,1,12,23,63,160,36,26,36,223,32,10,35,194,36,15,26,081,18*73
$GPGSV,3,2,12,29,18,124,37,13,16,052,27,08,05,305,13,18,68,064,*71
$GPGSV,3,3,12,16,48,271,,27,33,302,,05,09,042,,07,04,340,*7F
$GPGSA,A,3,10,13,15,26,29,,,,,,,,2.5,1.3,2.1*3C
$GPRMC,043010.00,A,5034.866565,N,03635.622484,E,000.0,,300921,,,A*7E
$GPGGA,043011.00,5034.866565,N,03635.622484,E,1,11,0.6,183.3,M,17.3,M,,*60
$GPGSV,3,1,12,23,63,160,36,26,36,223,32,10,35,194,36,15,26,081,18*73
$GPGSV,3,2,12,29,18,124,37,13,16,052,27,08,05,305,10,18,68,064,*72
$GPGSV,3,3,12,16,48,271,,27,33,302,,05,09,042,,07,04,340,*7F
$GPGSA,A,3,10,13,15,26,29,,,,,,,,2.7,1.5,2.3*3A
$GPRMC,043011.00,A,5034.866565,N,03635.622484,E,000.0,,300921,,,A*7F
$GPGGA,043012.00,5034.866565,N,03635.622484,E,1,11,0.8,183.5,M,17.3,M,,*6B
$GPGSV,3,1,12,23,63,160,36,26,36,223,32,10,35,194,37,15,26,081,18*72
$GPGSV,3,2,12,29,18,124,37,13,16,052,27,08,05,305,07,18,68,064,*74
$GPGSV,3,3,12,16,48,271,,27,33,302,,05,09,042,,07,04,340,*7F
$GPGSA,A,3,10,13,15,26,29,,,,,,,,5.3,1.7,5.0*3F
$GPRMC,043012.00,A,5034.866565,N,03635.622484,E,000.0,,300921,,,A*7C
$GPGGA,043013.00,5034.866565,N,03635.622484,E,1,11,0.8,183.6,M,17.3,M,,*69
$GPGSV,3,1,12,23,63,160,36,26,36,223,32,10,35,194,37,15,26,081,18*72
$GPGSV,3,2,12,29,18,124,37,13,16,052,27,18,68,064,,16,48,271,*77
$GPGSV,3,3,12,27,33,302,,05,09,042,,08,05,305,,07,04,340,*7B
$GPGSA,A,3,10,13,15,26,29,,,,,,,,5.3,1.7,5.0*3F
$GPRMC,043013.00,A,5034.866565,N,03635.622484,E,000.0,,300921,,,A*7D
$GPGGA,043014.00,5034.866565,N,03635.622484,E,1,11,0.8,183.8,M,17.3,M,,*60
$GPGSV,3,1,12,23,63,160,36,26,36,223,32,10,35,194,37,15,26,081,19*73
$GPGSV,3,2,12,29,18,124,37,13,16,052,27,18,68,064,,16,48,271,*77
$GPGSV,3,3,12,27,33,302,,05,09,042,,08,05,305,,07,04,340,*7B
$GPGSA,A,3,10,13,15,26,29,,,,,,,,5.3,1.7,5.0*3F
$GPRMC,043014.00,A,5034.866565,N,03635.622484,E,000.0,,300921,,,A*7A
$GPGGA,043015.00,5034.866565,N,03635.622484,E,1,11,1.6,183.9,M,17.3,M,,*6F
$GPGSV,3,1,12,23,63,160,36,26,36,223,32,10,35,194,37,15,26,081,19*73
$GPGSV,3,2,12,29,18,124,38,13,16,052,27,18,68,064,,16,48,271,*78
$GPGSV,3,3,12,27,33,302,,05,09,042,,08,05,305,,07,04,340,*7B
$GPGSA,A,3,10,13,15,26,29,,,,,,,,10.7,2.9,10.3*35
$GPRMC,043015.00,A,5034.866565,N,03635.622484,E,000.0,,300921,,,A*7B
$GPGGA,043016.00,5034.866565,N,03635.622484,E,1,11,1.6,184.1,M,17.3,M,,*63
$GPGSV,3,1,12,23,64,160,36,26,36,223,32,10,35,194,37,15,26,081,20*7E
$GPGSV,3,2,12,29,18,124,38,13,16,052,26,18,68,064,,16,48,271,*79
$GPGSV,3,3,12,27,33,302,,05,09,042,,08,05,305,,07,04,340,*7B
$GPGSA,A,3,10,13,15,26,29,,,,,,,,10.7,2.9,10.3*35
$GPRMC,043016.00,A,5034.866565,N,03635.622484,E,000.0,,300921,,,A*78
$GPGGA,043017.00,5034.866565,N,03635.622484,E,1,11,1.6,184.2,M,17.3,M,,*61
$GPGSV,3,1,12,23,64,160,36,26,36,223,32,10,35,194,37,15,26,081,21*7F
$GPGSV,3,2,12,29,18,124,38,13,16,052,26,18,68,064,,16,48,271,*79
$GPGSV,3,3,12,27,33,302,,05,09,042,,08,05,305,,07,04,340,*7B
$GPGSA,A,3,10,13,15,26,29,,,,,,,,10.7,2.9,10.3*35
$GPRMC,043017.00,A,5034.866565,N,03635.622484,E,000.0,,300921,,,A*79
$GPGGA,043018.00,5034.866565,N,03635.622484,E,1,11,0.6,184.4,M,17.3,M,,*69
$GPGSV,3,1,12,23,64,160,36,26,36,223,32,10,35,194,36,15,26,081,22*7D
$GPGSV,3,2,12,29,18,124,38,13,16,052,26,18,68,064,,16,48,271,*79
$GPGSV,3,3,12,27,33,302,,05,09,042,,08,05,305,,07,04,340,*7B
$GPGSA,A,3,10,13,15,26,29,,,,,,,,2.7,1.3,2.4*3B
$GPRMC,043018.00,A,5034.866565,N,03635.622484,E,000.0,,300921,,,A*76
$GPGGA,043019.00,5034.866565,N,03635.622484,E,1,11,0.8,184.5,M,17.3,M,,*67
$GPGSV,3,1,12,23,64,160,36,26,36,223,32,10,35,194,36,15,26,081,22*7D
$GPGSV,3,2,12,29,18,124,38,13,16,052,26,18,68,064,,16,48,271,*79
$GPGSV,3,3,12,27,33,302,,05,09,042,,08,05,305,,07,04,340,*7B
$GPGSA,A,3,10,13,15,26,29,,,,,,,,2.7,1.3,2.4*3B
$GPRMC,043019.00,A,5034.866565,N,03635.622484,E,000.0,,300921,,,A*77
$GPGGA,043020.00,5034.866565,N,03635.622484,E,1,11,0.6,184.7,M,17.3,M,,*61
$GPGSV,3,1,12,23,64,160,36,26,36,223,32,10,35,194,36,15,26,081,22*7D
$GPGSV,3,2,12,29,18,124,38,13,16,052,26,18,68,064,,16,48,271,*79
$GPGSV,3,3,12,27,33,302,,05,09,042,,08,05,305,,07,04,340,*7B
$GPGSA,A,3,10,13,15,26,29,,,,,,,,2.1,1.3,1.7*3D
$GPRMC,043020.00,A,5034.866565,N,03635.622484,E,000.0,,300921,,,A*7D
$GPGGA,043021.00,5034.866565,N,03635.622484,E,1,11,0.6,184.8,M,17.3,M,,*6F
$GPGSV,3,1,12,23,64,160,35,26,36,223,32,10,35,194,36,15,26,081,22*7E
$GPGSV,3,2,12,29,18,124,38,13,16,052,26,18,68,064,,16,48,271,*79
$GPGSV,3,3,12,27,33,302,,05,09,042,,08,05,305,,07,04,340,*7B
$GPGSA,A,3,10,13,15,26,29,,,,,,,,2.7,1.3,2.4*3B
$GPRMC,043021.00,A,5034.866565,N,03635.622484,E,000.0,,300921,,,A*7C
$GPGGA,043022.00,5034.866565,N,03635.622484,E,1,11,1.2,185.0,M,17.3,M,,*60
$GPGSV,3,1,12,23,64,160,35,26,36,223,31,10,35,194,36,15,26,081,23*7C
$GPGSV,3,2,12,29,18,124,38,13,16,052,26,18,68,064,,16,48,271,*79
$GPGSV,3,3,12,27,33,302,,05,09,042,,08,05,305,,07,04,340,*7B
$GPGSA,A,3,10,13,15,26,29,,,,,,,,2.6,1.3,2.3*3D
$GPRMC,043022.00,A,5034.866565,N,03635.622484,E,000.0,,300921,,,A*7F
$GPGGA,043023.00,5034.866565,N,03635.622484,E,1,11,1.2,185.1,M,17.3,M,,*60
$GPGSV,3,1,12,23,64,160,35,26,36,223,31,10,35,194,36,15,26,081,23*7C
$GPGSV,3,2,12,29,18,124,38,13,16,052,26,16,48,271,15,18,68,064,*7D
$GPGSV,3,3,12,27,33,302,,05,09,042,,08,05,305,,07,04,340,*7B
$GPGSA,A,3,10,13,15,26,29,,,,,,,,2.5,1.3,2.1*3C
$GPRMC,043023.00,A,5034.866565,N,03635.622484,E,000.0,,300921,,,A*7E
$GPGGA,043024.00,5034.866565,N,03635.622484,E,1,10,1.2,185.3,M,17.3,M,,*64
$GPGSV,3,1,12,23,64,160,35,26,36,223,31,10,35,194,36,15,26,081,23*7C
$GPGSV,3,2,12,29,18,124,38,13,16,052,25,16,48,271,16,18,68,064,*7D
$GPGSV,3,3,12,27,33,302,,05,09,042,,08,06,305,,07,04,340,*78
$GPGSA,A,3,10,13,15,26,29,,,,,,,,5.3,1.7,5.0*3F
$GPRMC,043024.00,A,5034.866565,N,03635.622484,E,000.0,,300921,,,A*79
$GPGGA,043025.00,5034.866565,N,03635.622484,E,1,11,1.2,185.4,M,17.3,M,,*63
$GPGSV,3,1,12,23,64,160,35,26,36,223,31,10,35,194,36,15,26,081,23*7C
$GPGSV,3,2,12,29,18,124,38,13,16,052,25,16,48,271,18,18,68,064,*73
$GPGSV,3,3,12,27,33,302,,05,09,042,,08,06,305,,07,04,340,*78
$GPGSA,A,3,10,13,15,26,29,,,,,,,,5.3,1.7,5.0*3F
$GPRMC,043025.00,A,5034.866565,N,03635.622484,E,000.0,,300921,,,A*78
$GPGGA,043026.00,5034.866565,N,03635.622484,E,1,11,1.6,185.6,M,17.3,M,,*66
$GPGSV,3,1,12,23,64,160,35,26,36,223,31,10,35,194,36,15,26,081,23*7C
$GPGSV,3,2,12,29,18,124,38,13,16,052,25,16,48,271,18,18,68,064,*73
$GPGSV,3,3,12,27,33,302,,05,09,042,,08,06,305,,07,04,340,*78
$GPGSA,A,3,10,13,15,26,29,,,,,,,,2.6,1.3,2.3*3D
$GPRMC,043026.00,A,5034.866565,N,03635.622484,E,000.0,,300921,,,A*7B
$GPGGA,043027.00,5034.866565,N,03635.622484,E,1,11,0.8,185.7,M,17.3,M,,*69
$GPGSV,3,1,12,23,64,160,34,26,36,223,31,10,35,194,36,15,26,081,23*7D
$GPGSV,3,2,12,29,18,124,38,13,16,052,25,16,48,271,18,18,68,064,*73
$GPGSV,3,3,12,27,34,302,,05,09,042,,08,06,305,,07,04,340,*7F
$GPGSA,A,3,10,13,15,26,29,,,,,,,,2.7,1.3,2.3*3C
$GPRMC,043027.00,A,5034.866565,N,03635.622484,E,000.0,,300921,,,A*7A
$GPGGA,043028.00,5034.866565,N,03635.622484,E,1,11,0.8,185.9,M,17.3,M,,*68
$GPGSV,3,1,12,23,64,160,34,26,36,223,31,10,35,194,36,15,26,081,24*7A
$GPGSV,3,2,12,29,18,124,38,13,16,051,24,16,48,271,18,18,68,064,*71
$GPGSV,3,3,12,27,34,302,,05,09,042,,08,06,305,,07,04,340,*7F
$GPGSA,A,3,10,13,15,26,29,,,,,,,,2.6,1.3,2.3*3D
$GPRMC,043028.00,A,5034.866565,N,03635.622484,E,000.0,,300921,,,A*75
$GPGGA,043029.00,5034.866565,N,03635.622484,E,1,11,1.2,186.0,M,17.3,M,,*68
$GPGSV,3,1,12,23,64,160,34,26,36,223,31,10,35,194,36,15,26,081,24*7A
$GPGSV,3,2,12,29,18,124,39,13,16,051,24,16,48,271,19,18,68,064,*71
$GPGSV,3,3,12,27,34,302,,05,09,042,,08,06,305,,07,04,340,*7F
$GPGSA,A,3,10,13,15,26,29,,,,,,,,2.6,1.3,2.3*3D
$GPRMC,043029.00,A,5034.866565,N,03635.622484,E,000.0,,300921,,,A*74
$GPGGA,043030.00,5034.866565,N,03635.622484,E,1,11,1.2,186.1,M,17.3,M,,*61
$GPGSV,3,1,12,23,64,160,34,26,36,223,31,10,35,194,36,15,26,081,24*7A
$GPGSV,3,2,12,29,18,124,38,13,16,051,24,16,48,271,19,18,68,064,*70
$GPGSV,3,3,12,27,34,302,,05,09,042,,08,06,305,,07,04,340,*7F
$GPGSA,A,3,10,13,15,26,29,,,,,,,,2.6,1.3,2.3*3D
$GPRMC,043030.00,A,5034.866565,N,03635.622484,E,000.0,,300921,,,A*7C
$GPGGA,043031.00,5034.866565,N,03635.622484,E,1,11,1.2,186.3,M,17.3,M,,*62
$GPGSV,3,1,12,23,64,160,34,26,36,223,31,10,35,194,36,15,26,081,24*7A
$GPGSV,3,2,12,29,18,124,38,13,16,051,24,16,48,271,17,18,68,064,*7E
$GPGSV,3,3,12,27,34,302,,05,09,042,,08,06,305,,07,04,340,*7F
$GPGSA,A,3,10,13,15,26,29,,,,,,,,2.1,1.3,1.7*3D
$GPRMC,043031.00,A,5034.866565,N,03635.622484,E,000.0,,300921,,,A*7D
$GPGGA,043032.00,5034.866565,N,03635.622484,E,1,11,1.6,186.4,M,17.3,M,,*62
$GPGSV,3,1,12,23,64,160,33,26,36,223,31,10,35,194,36,15,26,081,24*7D
$GPGSV,3,2,12,29,18,124,38,13,16,051,24,16,48,270,14,18,68,064,*7C
$GPGSV,3,3,12,27,34,302,,05,09,042,,08,06,305,,07,04,340,*7F
$GPGSA,A,3,10,13,15,26,29,,,,,,,,2.1,1.2,1.7*3C
$GPRMC,043032.00,A,5034.866565,N,03635.622484,E,000.0,,300921,,,A*7E
$GPGGA,043033.00,5034.866565,N,03635.622484,E,1,11,1.2,186.6,M,17.3,M,,*65
$GPGSV,3,1,12,23,64,160,33,26,36,223,31,10,35,194,36,15,26,081,24*7D
$GPGSV,3,2,12,29,18,124,38,13,16,051,24,16,48,270,10,18,68,064,*78
$GPGSV,3,3,12,27,34,302,,05,09,042,,08,06,305,,07,04,340,*7F
$GPGSA,A,3,10,13,15,26,29,,,,,,,,2.1,1.2,1.7*3C
$GPRMC,043033.00,A,5034.866565,N,03635.622484,E,000.0,,300921,,,A*7F
$GPGGA,043034.00,5034.866565,N,03635.622484,E,1,11,1.2,186.7,M,17.3,M,,*63
$GPGSV,3,1,12,23,64,160,33,26,36,223,31,10,35,194,36,15,26,081,24*7D
$GPGSV,3,2,12,29,18,124,38,13,16,051,24,18,68,064,,16,48,270,*79
$GPGSV,3,3,12,27,34,302,,05,09,042,,08,06,305,,07,04,340,*7F
$GPGSA,A,3,10,13,15,26,29,,,,,,,,2.6,1.3,2.3*3D
$GPRMC,043034.00,A,5034.866565,N,03635.622484,E,000.0,,300921,,,A*78
$GPGGA,043035.00,5034.866565,N,03635.622484,E,1,11,0.8,186.9,M,17.3,M,,*67
$GPGSV,3,1,12,23,64,160,32,26,36,223,32,10,35,194,36,15,26,081,24*7F
$GPGSV,3,2,12,29,18,124,38,13,16,051,25,18,68,064,,16,48,270,*78
$GPGSV,3,3,12,27,34,302,,05,09,042,,08,06,305,,07,04,340,*7F
$GPGSA,A,3,10,13,15,26,29,,,,,,,,2.1,1.2,1.7*3C
$GPRMC,043035.00,A,5034.866565,N,03635.622484,E,000.0,,300921,,,A*79
$GPGGA,043036.00,5034.866565,N,03635.622484,E,1,11,0.8,187.0,M,17.3,M,,*6C
$GPGSV,3,1,12,23,64,160,32,26,36,223,32,10,35,194,36,15,26,081,25*7E
$GPGSV,3,2,12,29,18,124,38,13,16,051,25,18,68,064,,16,48,270,*78
$GPGSV,3,3,12,27,34,302,,05,09,042,,08,06,305,,07,04,340,*7F
$GPGSA,A,3,10,13,15,26,29,,,,,,,,2.7,1.3,2.3*3C
$GPRMC,043036.00,A,5034.866565,N,03635.622484,E,000.0,,300921,,,A*7A
$GPGGA,043037.00,5034.866565,N,03635.622484,E,1,11,0.8,187.1,M,17.3,M,,*6C
$GPGSV,3,1,12,23,64,160,32,26,36,223,32,10,35,194,36,15,26,081,25*7E
$GPGSV,3,2,12,29,18,124,38,13,16,051,25,18,68,064,,16,48,270,*78
$GPGSV,3,3,12,27,34,302,,05,09,042,,08,06,305,,07,04,340,*7F
$GPGSA,A,3,10,13,15,26,29,,,,,,,,2.6,1.4,2.2*3B
$GPRMC,043037.00,A,5034.866565,N,03635.622484,E,000.0,,300921,,,A*7B
$GPGGA,043038.00,5034.866565,N,03635.622484,E,1,11,0.8,187.3,M,17.3,M,,*61
$GPGSV,3,1,12,23,64,160,32,26,36,223,32,10,35,194,36,15,26,081,25*7E
$GPGSV,3,2,12,29,18,124,38,13,16,051,25,18,68,064,,16,48,270,*78
$GPGSV,3,3,12,27,34,302,,05,09,042,,08,06,305,,07,04,340,*7F
$GPGSA,A,3,10,13,15,26,29,,,,,,,,2.6,1.4,2.2*3B
$GPRMC,043038.00,A,5034.866565,N,03635.622484,E,000.0,,300921,,,A*74
$GPGGA,043039.00,5034.866565,N,03635.622484,E,1,11,1.6,187.4,M,17.3,M,,*68
$GPGSV,3,1,12,23,64,160,31,26,36,223,32,10,35,194,36,15,26,081,25*7D
$GPGSV,3,2,12,29,18,124,38,13,16,051,26,18,68,064,,16,48,270,*7B
$GPGSV,3,3,12,27,34,302,,05,09,042,,08,06,305,,07,04,340,*7F
$GPGSA,A,3,10,13,15,26,29,,,,,,,,10.8,2.9,10.4*3D
$GPRMC,043039.00,A,5034.866565,N,03635.622484,E,000.0,,300921,,,A*75
$GPGGA,043040.00,5034.866565,N,03635.622484,E,1,11,0.6,187.6,M,17.3,M,,*65
$GPGSV,3,1,12,23,64,160,31,26,36,223,32,10,35,194,36,15,26,081,26*7E
$GPGSV,3,2,12,29,18,124,38,13,16,051,26,18,68,064,,16,48,270,*7B
$GPGSV,3,3,12,27,34,302,,05,09,042,,08,06,305,,07,04,340,*7F
$GPGSA,A,3,10,13,15,26,29,,,,,,,,2.7,1.3,2.3*3C
$GPRMC,043040.00,A,5034.866565,N,03635.622484,E,000.0,,300921,,,A*7B
$GPGGA,043041.00,5034.866565,N,03635.622484,E,1,11,0.6,187.7,M,17.3,M,,*65
$GPGSV,3,1,12,23,64,160,31,26,36,223,32,10,35,194,36,15,26,081,26*7E
$GPGSV,3,2,12,29,18,124,38,13,16,051,27,18,68,064,,16,48,270,*7A
$GPGSV,3,3,12,27,34,302,,05,09,042,,08,06,305,,07,04,340,*7F
$GPGSA,A,3,10,13,15,26,29,,,,,,,,2.5,1.3,2.1*3C
$GPRMC,043041.00,A,5034.866565,N,03635.622484,E,000.0,,300921,,,A*7A
$GPGGA,043042.00,5034.866565,N,03635.622484,E,1,11,0.6,187.8,M,17.3,M,,*69
$GPGSV,3,1,12,23,64,160,30,26,36,223,32,10,35,194,36,15,26,081,26*7F
$GPGSV,3,2,12,29,18,124,38,13,16,051,27,18,68,064,,16,48,270,*7A
$GPGSV,3,3,12,27,34,302,,05,09,042,,08,06,305,,07,04,340,*7F
$GPGSA,A,3,10,13,15,26,29,,,,,,,,2.5,1.3,2.1*3C
$GPRMC,043042.00,A,5034.866565,N,03635.622484,E,000.0,,300921,,,A*79
$GPGGA,043043.00,5034.866565,N,03635.622484,E,1,11,0.6,187.9,M,17.3,M,,*69
$GPGSV,3,1,12,23,64,160,30,26,36,223,32,10,35,194,36,15,26,081,26*7F
$GPGSV,3,2,12,29,18,124,38,13,16,051,27,18,68,064,,16,48,270,*7A
$GPGSV,3,3,12,27,34,302,,05,09,042,,08,06,305,,07,04,340,*7F
$GPGSA,A,3,10,13,15,26,29,,,,,,,,2.5,1.3,2.1*3C
$GPRMC,043043.00,A,5034.866565,N,03635.622484,E,000.0,,300921,,,A*78
$GPGGA,043044.00,5034.866565,N,03635.622484,E,1,11,0.8,188.0,M,17.3,M,,*66
$GPGSV,3,1,12,23,64,160,30,26,36,223,32,10,35,194,36,15,26,081,26*7F
$GPGSV,3,2,12,29,18,124,38,13,16,051,27,18,68,064,,16,48,270,*7A
$GPGSV,3,3,12,27,34,302,,05,08,042,,08,06,305,,07,04,340,*7E
$GPGSA,A,3,10,13,15,26,29,,,,,,,,2.1,1.2,1.7*3C
$GPRMC,043044.00,A,5034.866565,N,03635.622484,E,000.0,,300921,,,A*7F
$GPGGA,043045.00,5034.866565,N,03635.622484,E,1,11,0.8,188.1,M,17.3,M,,*66
$GPGSV,3,1,12,23,64,160,30,26,36,223,32,10,35,194,36,15,26,081,26*7F
$GPGSV,3,2,12,29,18,124,38,13,16,051,27,18,67,064,,16,48,270,*75
$GPGSV,3,3,12,27,34,302,,05,08,042,,08,06,305,,07,04,340,*7E
$GPGSA,A,3,10,13,15,26,29,,,,,,,,2.1,1.2,1.7*3C
$GPRMC,043045.00,A,5034.866565,N,03635.622484,E,000.0,,300921,,,A*7E
$GPGGA,043046.00,5034.866565,N,03635.622484,E,1,11,0.8,188.2,M,17.3,M,,*66
$GPGSV,3,1,12,23,64,160,29,26,36,223,32,10,35,194,36,15,26,081,27*76
$GPGSV,3,2,12,29,18,124,38,13,16,051,28,18,67,064,,16,48,270,*7A
$GPGSV,3,3,12,27,34,302,,05,08,042,,08,06,305,,07,04,340,*7E
$GPGSA,A,3,10,13,15,26,29,,,,,,,,2.6,1.3,2.3*3D
$GPRMC,043046.00,A,5034.866565,N,03635.622484,E,000.0,,300921,,,A*7D
$GPGGA,043047.00,5034.866565,N,03635.622484,E,1,11,0.8,188.2,M,17.3,M,,*67
$GPGSV,3,1,12,23,64,160,29,26,36,223,32,10,35,194,36,15,26,081,27*76
$GPGSV,3,2,12,29,18,124,38,13,16,051,28,18,67,064,,16,48,270,*7A
$GPGSV,3,3,12,27,34,302,,05,08,042,,08,06,305,,07,04,340,*7E
$GPGSA,A,3,10,13,15,26,29,,,,,,,,2.1,1.2,1.7*3C
$GPRMC,043047.00,A,5034.866565,N,03635.622484,E,000.0,,300921,,,A*7C
$GPGGA,043048.00,5034.866565,N,03635.622484,E,1,11,0.6,188.3,M,17.3,M,,*67
$GPGSV,3,1,12,23,64,160,29,26,36,223,32,10,35,194,36,15,26,081,27*76
$GPGSV,3,2,12,29,18,124,38,13,16,051,28,18,67,064,,16,48,270,*7A
$GPGSV,3,3,12,27,34,302,,05,08,042,,08,06,305,,07,04,340,*7E
$GPGSA,A,3,10,13,15,26,29,,,,,,,,2.1,1.2,1.7*3C
$GPRMC,043048.00,A,5034.866565,N,03635.622484,E,000.0,,300921,,,A*73
$GPGGA,043049.00,5034.866565,N,03635.622484,E,1,11,0.6,188.3,M,17.3,M,,*66
$GPGSV,3,1,12,23,64,160,29,26,36,223,32,10,35,194,36,15,26,081,27*76
$GPGSV,3,2,12,29,18,124,38,13,16,051,28,18,67,064,,16,48,270,*7A
$GPGSV,3,3,12,27,34,302,,05,08,042,,08,06,305,,07,04,340,*7E
$GPGSA,A,3,10,13,15,26,29,,,,,,,,2.6,1.3,2.3*3D
$GPRMC,043049.00,A,5034.866565,N,03635.622484,E,000.0,,300921,,,A*72
$GPGGA,043050.00,5034.866565,N,03635.622484,E,1,11,0.6,188.4,M,17.3,M,,*69
$GPGSV,3,1,12,23,64,160,28,26,36,223,32,10,35,194,36,15,26,081,27*77
$GPGSV,3,2,12,29,18,124,38,13,16,051,28,16,48,270,21,18,67,064,*79
$GPGSV,3,3,12,27,34,302,,05,08,042,,08,06,305,,07,04,340,*7E
$GPGSA,A,3,10,13,15,26,29,,,,,,,,2.6,1.3,2.3*3D
$GPRMC,043050.00,A,5034.866565,N,03635.622484,E,000.0,,300921,,,A*7A
$GPGGA,043051.00,5034.866565,N,03635.622484,E,1,11,0.6,188.4,M,17.3,M,,*68
$GPGSV,3,1,12,23,64,160,28,26,36,223,32,10,35,194,36,15,26,081,27*77
$GPGSV,3,2,12,29,18,124,38,13,16,051,28,16,48,270,22,18,67,064,*7A
$GPGSV,3,3,12,27,34,303,,05,08,042,,08,06,305,,07,04,340,*7F
$GPGSA,A,3,10,13,15,26,29,,,,,,,,2.6,1.3,2.3*3D
$GPRMC,043051.00,A,5034.866565,N,03635.622484,E,000.0,,300921,,,A*7B
$GPGGA,043052.00,5034.866565,N,03635.622484,E,1,11,0.8,188.5,M,17.3,M,,*64
$GPGSV,3,1,12,23,64,160,28,26,36,223,32,10,35,194,35,15,26,081,27*74
$GPGSV,3,2,12,29,18,124,38,13,16,051,28,16,48,270,22,18,67,065,*7B
$GPGSV,3,3,12,27,34,303,,05,08,042,,08,06,305,,07,04,340,*7F
$GPGSA,A,3,10,13,15,26,29,,,,,,,,2.6,1.3,2.3*3D
$GPRMC,043052.00,A,5034.866565,N,03635.622484,E,000.0,,300921,,,A*78
$GPGGA,043053.00,5034.866565,N,03635.622484,E,1,11,0.8,188.5,M,17.3,M,,*65
$GPGSV,3,1,12,23,64,160,29,26,36,223,32,10,35,194,35,15,26,081,27*75
$GPGSV,3,2,12,29,18,124,37,13,16,051,28,16,48,270,22,18,67,065,*74
$GPGSV,3,3,12,27,34,303,,05,08,042,,08,06,305,,07,04,340,*7F
$GPGSA,A,3,10,13,15,26,29,,,,,,,,2.6,1.3,2.3*3D
$GPRMC,043053.00,A,5034.866565,N,03635.622484,E,000.0,,300921,,,A*79
$GPGGA,043054.00,5034.866565,N,03635.622484,E,1,11,0.8,188.6,M,17.3,M,,*61
$GPGSV,3,1,12,23,64,160,29,26,36,223,33,10,35,194,35,15,26,081,27*74
$GPGSV,3,2,12,29,18,124,37,13,16,051,28,16,48,270,22,18,67,065,*74
$GPGSV,3,3,12,27,34,303,,05,08,042,,08,06,305,,07,04,340,*7F
$GPGSA,A,3,10,13,15,26,29,,,,,,,,5.3,1.6,5.0*3E
$GPRMC,043054.00,A,5034.866565,N,03635.622484,E,000.0,,300921,,,A*7E
$GPGGA,043055.00,5034.866565,N,03635.622484,E,1,11,0.8,188.6,M,17.3,M,,*60
$GPGSV,3,1,12,23,64,160,29,26,36,223,33,10,35,194,35,15,26,081,27*74
$GPGSV,3,2,12,29,18,124,37,13,16,051,29,16,48,270,22,18,67,065,*75
$GPGSV,3,3,12,27,34,303,,05,08,042,,08,06,305,,07,04,340,*7F
$GPGSA,A,3,10,13,15,26,29,,,,,,,,5.3,1.6,5.0*3E
$GPRMC,043055.00,A,5034.866565,N,03635.622484,E,000.0,,300921,,,A*7F
$GPGGA,043056.00,5034.866565,N,03635.622484,E,1,11,0.8,188.7,M,17.3,M,,*62
$GPGSV,3,1,12,23,64,160,29,26,36,223,33,10,35,194,35,15,26,081,27*74
$GPGSV,3,2,12,29,18,124,37,13,16,051,29,16,48,270,22,18,67,065,*75
$GPGSV,3,3,12,27,34,303,,05,08,042,,08,06,305,,07,04,340,*7F
$GPGSA,A,3,10,13,15,26,29,,,,,,,,5.3,1.6,5.0*3E
$GPRMC,043056.00,A,5034.866565,N,03635.622484,E,000.0,,300921,,,A*7C
$GPGGA,043057.00,5034.866565,N,03635.622484,E,1,11,0.8,188.7,M,17.3,M,,*63
$GPGSV,3,1,12,23,64,160,29,26,36,223,34,10,35,194,35,15,26,081,27*73
$GPGSV,3,2,12,29,18,124,37,13,16,051,29,16,48,270,22,18,67,065,*75
$GPGSV,3,3,12,27,34,303,,05,08,042,,08,06,305,,07,04,340,*7F
$GPGSA,A,3,10,13,15,26,29,,,,,,,,5.3,1.6,5.0*3E
$GPRMC,043057.00,A,5034.866565,N,03635.622484,E,000.0,,300921,,,A*7D
$GPGGA,043058.00,5034.866565,N,03635.622484,E,1,11,0.8,188.8,M,17.3,M,,*63
$GPGSV,3,1,12,23,64,160,29,26,36,223,34,10,35,194,35,15,26,081,26*72
$GPGSV,3,2,12,29,18,124,37,13,16,051,29,16,48,270,23,18,67,065,*74
$GPGSV,3,3,12,27,34,303,,05,08,042,,08,06,305,,07,04,340,*7F
$GPGSA,A,3,10,13,15,26,29,,,,,,,,5.3,1.6,5.0*3E
$GPRMC,043058.00,A,5034.866565,N,03635.622484,E,000.0,,300921,,,A*72
$GPGGA,043059.00,5034.866565,N,03635.622484,E,1,11,0.8,188.9,M,17.3,M,,*63
$GPGSV,3,1,12,23,64,160,29,26,36,223,34,10,35,194,35,15,26,081,26*72
$GPGSV,3,2,12,29,18,124,37,13,16,051,29,16,48,270,23,18,67,065,*74
$GPGSV,3,3,12,27,34,303,,05,08,042,,08,06,305,,07,04,340,*7F
$GPGSA,A,3,10,13,15,26,29,,,,,,,,5.3,1.6,5.0*3E
$GPRMC,043059.00,A,5034.866565,N,03635.622484,E,000.0,,300921,,,A*73
$GPGGA,043100.00,5034.866565,N,03635.622484,E,1,11,0.8,188.9,M,17.3,M,,*6E
$GPGSV,3,1,12,23,64,160,29,10,36,194,35,26,36,223,34,15,26,081,26*71
$GPGSV,3,2,12,29,18,124,37,13,16,051,29,16,48,270,24,18,67,065,*73
$GPGSV,3,3,12,27,34,303,,05,08,042,,08,06,305,,07,04,340,*7F
$GPGSA,A,3,10,13,15,26,29,,,,,,,,5.3,1.6,5.0*3E
$GPRMC,043100.00,A,5034.866565,N,03635.622484,E,000.0,,300921,,,A*7E
$GPGGA,043101.00,5034.866565,N,03635.622484,E,1,11,0.8,189.0,M,17.3,M,,*67
$GPGSV,3,1,12,23,64,159,29,10,36,194,35,26,36,223,34,15,26,081,26*7B
$GPGSV,3,2,12,29,18,124,37,13,16,051,29,16,48,270,24,18,67,065,*73
$GPGSV,3,3,12,27,34,303,,05,08,042,,08,06,305,,07,04,340,*7F
$GPGSA,A,3,10,13,15,26,29,,,,,,,,5.3,1.6,5.0*3E
$GPRMC,043101.00,A,5034.866565,N,03635.622484,E,000.0,,300921,,,A*7F
$GPGGA,043102.00,5034.866565,N,03635.622484,E,1,11,0.8,189.1,M,17.3,M,,*65
$GPGSV,3,1,12,23,64,159,29,10,36,194,34,26,36,223,34,15,26,081,27*7B
$GPGSV,3,2,12,29,18,124,37,13,16,051,29,16,48,270,24,18,67,065,*73
$GPGSV,3,3,12,27,34,303,,05,08,042,,08,06,305,,07,04,340,*7F
$GPGSA,A,3,10,13,15,26,29,,,,,,,,5.3,1.6,5.0*3E
$GPRMC,043102.00,A,5034.866565,N,03635.622484,E,000.0,,300921,,,A*7C
$GPGGA,043103.00,5034.866565,N,03635.622484,E,1,11,0.8,189.1,M,17.3,M,,*64
$GPGSV,3,1,12,23,64,159,29,10,36,194,34,26,36,222,34,15,26,081,27*7A
$GPGSV,3,2,12,29,18,124,37,13,16,051,29,16,48,270,25,18,67,065,*72
$GPGSV,3,3,12,27,34,303,,05,08,042,,08,06,305,,07,04,340,*7F
$GPGSA,A,3,10,13,15,26,29,,,,,,,,5.3,1.6,5.0*3E
$GPRMC,043103.00,A,5034.866565,N,03635.622484,E,000.0,,300921,,,A*7D
$GPGGA,043104.00,5034.866565,N,03635.622484,E,1,11,0.8,189.2,M,17.3,M,,*60
$GPGSV,3,1,12,23,64,159,29,10,36,194,34,26,36,222,34,15,26,080,27*7B
$GPGSV,3,2,12,29,18,124,37,13,16,051,29,16,48,270,25,18,67,065,*72
$GPGSV,3,3,12,27,34,303,,05,08,042,,08,06,305,,07,04,340,*7F
$GPGSA,A,3,10,13,15,26,29,,,,,,,,5.3,1.6,5.0*3E
$GPRMC,043104.00,A,5034.866565,N,03635.622484,E,000.0,,300921,,,A*7A
$GPGGA,043105.00,5034.866565,N,03635.622484,E,1,11,0.8,189.3,M,17.3,M,,*60
$GPGSV,3,1,12,23,64,159,29,10,36,194,35,26,36,222,34,15,26,080,27*7A
$GPGSV,3,2,12,29,18,124,36,13,16,051,29,16,48,270,25,18,67,065,*73
$GPGSV,3,3,12,27,34,303,,05,08,042,,08,06,305,,07,04,340,*7F
$GPGSA,A,3,10,13,15,26,29,,,,,,,,5.3,1.6,5.0*3E
$GPRMC,043105.00,A,5034.866565,N,03635.622484,E,000.0,,300921,,,A*7B
$GPGGA,043106.00,5034.866565,N,03635.622484,E,1,11,0.8,189.3,M,17.3,M,,*63
$GPGSV,3,1,12,23,64,159,30,10,36,194,35,26,36,222,34,15,26,080,28*7D
$GPGSV,3,2,12,29,18,124,36,13,16,051,29,16,48,270,25,18,67,065,*73
$GPGSV,3,3,12,27,34,303,,05,08,042,,08,06,305,,07,04,340,*7F
$GPGSA,A,3,10,13,15,26,29,,,,,,,,5.3,1.6,5.0*3E
$GPRMC,043106.00,A,5034.866565,N,03635.622484,E,000.0,,300921,,,A*78
$GPGGA,043107.00,5034.866565,N,03635.622484,E,1,11,0.8,189.4,M,17.3,M,,*65
$GPGSV,3,1,12,23,64,159,30,10,36,194,35,26,36,222,34,15,26,080,28*7D
$GPGSV,3,2,12,29,18,124,36,13,16,051,28,16,48,270,25,18,67,065,*72
$GPGSV,3,3,12,27,34,303,,05,08,042,,08,06,305,,07,04,340,*7F
$GPGSA,A,3,10,13,15,26,29,,,,,,,,5.3,1.6,5.0*3E
$GPRMC,043107.00,A,5034.866565,N,03635.622484,E,000.0,,300921,,,A*79
$GPGGA,043108.00,5034.866565,N,03635.622484,E,1,11,1.6,189.4,M,17.3,M,,*65
$GPGSV,3,1,12,23,64,159,30,10,36,194,35,26,36,222,34,15,26,080,28*7D
$GPGSV,3,2,12,29,18,124,36,13,16,051,28,16,48,270,26,18,67,065,*71
$GPGSV,3,3,12,27,34,303,,05,08,042,,08,06,305,,07,04,340,*7F
$GPGSA,A,3,10,13,15,26,29,,,,,,,,2.1,1.2,1.7*3C
$GPRMC,043108.00,A,5034.866565,N,03635.622484,E,000.0,,300921,,,A*76
$GPGGA,043109.00,5034.866565,N,03635.622484,E,1,11,0.8,189.5,M,17.3,M,,*6A
$GPGSV,3,1,12,23,64,159,30,10,36,194,35,26,36,222,34,15,26,080,28*7D
$GPGSV,3,2,12,29,18,124,36,13,16,051,28,16,48,270,26,18,67,065,*71
$GPGSV,3,3,12,27,34,303,,05,08,042,,08,06,305,,07,04,340,*7F
$GPGSA,A,3,10,13,15,26,29,,,,,,,,2.1,1.2,1.7*3C
$GPRMC,043109.00,A,5034.866565,N,03635.622484,E,000.0,,300921,,,A*77
$GPGGA,043110.00,5034.866565,N,03635.622484,E,1,10,0.8,189.5,M,17.3,M,,*63
$GPGSV,3,1,12,23,64,159,31,10,36,194,35,26,36,222,34,15,26,080,28*7C
$GPGSV,3,2,12,29,18,124,36,13,16,051,28,16,48,270,26,18,67,065,*71
$GPGSV,3,3,12,27,34,303,,05,08,042,,08,06,305,,07,04,340,*7F
$GPGSA,A,3,10,13,15,26,29,,,,,,,,2.1,1.2,1.7*3C
$GPRMC,043110.00,A,5034.866565,N,03635.622484,E,000.0,,300921,,,A*7F
$GPGGA,043111.00,5034.866565,N,03635.622484,E,1,11,1.2,189.5,M,17.3,M,,*68
$GPGSV,3,1,12,23,64,159,31,10,36,194,35,26,35,222,34,15,26,080,28*7F
$GPGSV,3,2,12,29,18,124,36,13,16,051,28,16,48,270,26,18,67,065,*71
$GPGSV,3,3,12,27,34,303,,05,08,042,,08,06,305,,07,04,340,*7F
$GPGSA,A,3,10,13,15,26,29,,,,,,,,2.1,1.2,1.7*3C
$GPRMC,043111.00,A,5034.866565,N,03635.622484,E,000.0,,300921,,,A*7E
$GPGGA,043112.00,5034.866565,N,03635.622484,E,1,11,0.8,189.5,M,17.3,M,,*60
$GPGSV,3,1,12,23,64,159,31,10,36,194,35,26,35,222,34,15,26,080,28*7F
$GPGSV,3,2,12,29,18,124,36,13,16,051,27,16,48,270,26,18,67,065,*7E
$GPGSV,3,3,12,27,34,303,,05,08,042,,08,06,305,,07,04,340,*7F
$GPGSA,A,3,10,13,15,26,29,,,,,,,,2.1,1.2,1.7*3C
$GPRMC,043112.00,A,5034.866565,N,03635.622484,E,000.0,,300921,,,A*7D
$GPGGA,043113.00,5034.866565,N,03635.622484,E,1,10,0.8,189.5,M,17.3,M,,*60
$GPGSV,3,1,12,23,64,159,31,10,36,194,35,26,35,222,34,15,26,080,28*7F
$GPGSV,3,2,12,29,18,124,36,13,16,051,27,16,48,270,26,18,67,065,*7E
$GPGSV,3,3,12,27,34,303,,05,08,042,,08,06,305,,07,04,340,*7F
$GPGSA,A,3,10,13,15,26,29,,,,,,,,2.1,1.2,1.7*3C
$GPRMC,043113.00,A,5034.866565,N,03635.622484,E,000.0,,300921,,,A*7C
$GPGGA,043114.00,5034.866565,N,03635.622484,E,1,10,0.8,189.5,M,17.3,M,,*67
$GPGSV,3,1,12,23,64,159,31,10,36,194,35,26,35,222,34,15,26,080,28*7F
$GPGSV,3,2,12,29,18,124,36,13,16,051,27,16,48,270,26,18,67,065,*7E
$GPGSV,3,3,12,27,34,303,,05,08,042,,08,06,305,,07,04,340,*7F
$GPGSA,A,3,10,13,15,26,29,,,,,,,,2.1,1.2,1.7*3C
$GPRMC,043114.00,A,5034.866565,N,03635.622484,E,000.0,,300921,,,A*7B
$GPGGA,043115.00,5034.866565,N,03635.622484,E,1,11,1.2,189.5,M,17.3,M,,*6C
$GPGSV,3,1,12,23,64,159,32,10,36,194,35,26,35,222,34,15,26,080,28*7C
$GPGSV,3,2,12,29,18,124,36,13,16,051,27,16,48,270,26,18,67,065,*7E
$GPGSV,3,3,12,27,34,303,,05,08,042,,08,06,305,,07,04,340,*7F
$GPGSA,A,3,10,13,15,26,29,,,,,,,,2.1,1.2,1.7*3C
$GPRMC,043115.00,A,5034.866565,N,03635.622484,E,000.0,,300921,,,A*7A
$GPGGA,043116.00,5034.866565,N,03635.622484,E,1,10,1.2,189.5,M,17.3,M,,*6E
$GPGSV,3,1,12,23,64,159,32,10,36,194,35,26,35,222,34,15,26,080,28*7C
$GPGSV,3,2,12,29,18,124,36,13,16,051,26,16,48,270,26,18,67,065,*7F
$GPGSV,3,3,12,27,34,303,,05,08,042,,08,06,305,,07,04,340,*7F
$GPGSA,A,3,10,13,15,26,29,,,,,,,,2.1,1.2,1.7*3C
$GPRMC,043116.00,A,5034.866565,N,03635.622484,E,000.0,,300921,,,A*79
$GPGGA,043117.00,5034.866565,N,03635.622484,E,1,10,1.6,189.5,M,17.3,M,,*6B
$GPGSV,3,1,12,23,64,159,32,10,36,194,35,26,35,222,33,15,26,080,27*74
$GPGSV,3,2,12,29,18,124,35,13,16,051,26,16,48,270,26,18,67,065,*7C
$GPGSV,3,3,12,27,34,303,,05,08,042,,08,06,305,,07,04,340,*7F
$GPGSA,A,3,10,13,15,26,29,,,,,,,,2.1,1.2,1.7*3C
$GPRMC,043117.00,A,5034.866565,N,03635.622484,E,000.0,,300921,,,A*78
$GPGGA,043118.00,5034.866565,N,03635.622484,E,1,10,1.2,189.4,M,17.3,M,,*61
$GPGSV,3,1,12,23,64,159,33,10,36,194,36,26,35,222,33,15,26,080,27*76
$GPGSV,3,2,12,29,18,124,35,13,16,051,26,16,48,270,26,18,67,065,*7C
