$GPGGA,042350.72,,,,,0,00,999.9,,M,,M,,*63
$GPGSV,3,1,12,18,70,062,31,23,61,161,26,16,49,275,15,26,39,224,26*74
$GPGSV,3,2,12,10,32,193,31,27,31,302,12,15,25,083,36,29,20,121,32*70
$GPGSV,3,3,12,13,15,054,35,05,11,042,23,07,04,342,,08,03,304,*73
$GPGSA,A,1,,,,,,,,,,,,,140.0,99.0,99.0*35
$GPRMC,042350.72,V,,,,,,,300921,,,N*71
$GPGGA,042351.72,,,,,0,00,999.9,,M,,M,,*62
$GPGSV,3,1,12,18,70,062,31,23,61,161,25,16,49,275,15,26,39,224,26*77
$GPGSV,3,2,12,10,32,193,31,27,31,302,12,15,25,083,36,29,20,121,32*70
$GPGSV,3,3,12,13,15,054,35,05,11,042,23,07,04,342,,08,03,304,*73
$GPGSA,A,1,,,,,,,,,,,,,140.0,99.0,99.0*35
$GPRMC,042351.72,V,,,,,,,300921,,,N*70
$GPGGA,042352.72,,,,,0,00,999.9,,M,,M,,*61
$GPGSV,3,1,12,18,70,062,31,23,61,161,25,16,49,274,15,26,39,224,25*75
$GPGSV,3,2,12,10,32,193,30,27,31,302,12,15,25,083,38,29,20,121,37*7A
$GPGSV,3,3,12,13,15,054,34,05,11,042,23,07,04,342,,08,03,304,*72
$GPGSA,A,1,,,,,,,,,,,,,140.0,99.0,99.0*35
$GPRMC,042352.72,V,,,,,,,300921,,,N*73
$GPGGA,042353.72,,,,,0,00,999.9,,M,,M,,*60
$GPGSV,3,1,12,18,70,062,31,23,61,161,26,16,49,274,15,26,39,224,25*76
$GPGSV,3,2,12,10,32,193,29,27,31,302,12,15,25,083,38,29,20,121,38*7D
$GPGSV,3,3,12,13,15,054,34,05,11,042,23,07,04,342,,08,03,304,*72
$GPGSA,A,1,,,,,,,,,,,,,140.0,99.0,99.0*35
$GPRMC,042353.72,V,,,,,,,300921,,,N*72
$GPGGA,042354.72,,,,,0,00,999.9,,M,,M,,*67
$GPGSV,3,1,12,18,70,062,31,23,61,161,26,16,49,274,14,26,39,224,25*77
$GPGSV,3,2,12,10,32,193,28,27,31,302,12,15,25,083,37,29,20,121,38*73
$GPGSV,3,3,12,13,15,054,34,05,11,042,22,07,04,342,,08,03,304,*73
$GPGSA,A,1,,,,,,,,,,,,,140.0,99.0,99.0*35
$GPRMC,042354.72,V,,,,,,,300921,,,N*75
$GPGGA,042355.72,,,,,0,00,999.9,,M,,M,,*66
$GPGSV,3,1,12,10,32,193,27,18,70,062,31,23,61,161,26,16,49,274,14*74
$GPGSV,3,2,12,26,39,224,25,27,31,302,12,15,25,083,37,29,20,121,37*70
$GPGSV,3,3,12,13,15,054,34,05,11,042,22,07,04,342,,08,03,304,*73
$GPGSA,A,1,,,,,,,,,,,,,140.0,99.0,99.0*35
$GPRMC,042355.72,V,,,,,,,300921,,,N*74
$GPGGA,042356.72,,,,,0,00,999.9,,M,,M,,*65
$GPGSV,3,1,12,10,32,193,26,18,70,062,31,23,61,161,26,16,49,274,14*75
$GPGSV,3,2,12,26,39,224,24,27,31,302,12,15,25,083,36,29,20,121,37*70
$GPGSV,3,3,12,13,15,054,33,05,11,042,22,07,04,342,,08,03,304,*74
$GPGSA,A,1,,,,,,,,,,,,,140.0,99.0,99.0*35
$GPRMC,042356.72,V,,,,,,,300921,,,N*77
$GPGGA,042357.71,5034.888074,N,03635.635231,E,1,04,6.4,159.1,M,17.3,M,,*68
$GPGSV,3,1,12,10,32,193,25,18,70,062,31,23,61,161,26,16,49,274,14*76
$GPGSV,3,2,12,26,39,224,24,27,31,302,12,15,25,083,36,29,20,121,37*70
$GPGSV,3,3,12,13,15,054,33,05,11,042,21,07,04,342,,08,03,304,*77
$GPGSA,A,3,10,,,,,,,,,,,,5.1,3.2,4.0*32
$GPRMC,042357.71,A,5034.888074,N,03635.635231,E,000.2,018.2,300921,,,A*55
$GPGGA,042358.71,5034.886100,N,03635.618949,E,1,04,6.4,145.4,M,17.3,M,,*68
$GPGSV,3,1,12,10,32,194,25,18,70,062,31,23,61,163,26,16,48,275,14*73
$GPGSV,3,2,12,26,38,225,24,27,31,302,12,15,25,084,36,29,21,122,37*75
$GPGSV,3,3,12,13,16,054,33,05,11,043,20,07,04,343,,08,03,304,*75
$GPGSA,A,3,10,,,,,,,,,,,,5.1,3.2,4.0*32
$GPRMC,042358.71,A,5034.886100,N,03635.618949,E,000.2,058.9,300921,,,A*52
$GPGGA,042359.71,5034.861196,N,03635.625433,E,1,04,6.4,239.4,M,17.3,M,,*69
$GPGSV,3,1,12,10,32,194,24,18,70,062,31,23,61,163,26,16,48,275,14*72
$GPGSV,3,2,12,26,38,225,24,27,31,302,12,15,25,084,36,29,21,122,37*75
$GPGSV,3,3,12,13,16,054,33,05,11,043,19,07,04,343,,08,03,304,*7F
$GPGSA,A,3,10,,,,,,,,,,,,5.1,3.2,4.0*32
$GPRMC,042359.71,A,5034.861196,N,03635.625433,E,000.1,081.1,300921,,,A*54
$GPGGA,042400.71,5034.870114,N,03635.599087,E,1,06,3.2,226.1,M,17.3,M,,*6D
$GPGSV,3,1,12,10,32,194,23,18,70,062,31,23,61,163,26,16,48,275,14*75
$GPGSV,3,2,12,26,38,225,23,27,31,302,11,15,25,084,36,29,21,122,37*71
$GPGSV,3,3,12,13,16,054,33,05,11,043,19,07,04,343,,08,03,304,*7F
$GPGSA,A,3,10,13,,,,,,,,,,,3.0,1.8,2.4*3D
$GPRMC,042400.71,A,5034.870114,N,03635.599087,E,000.2,286.7,300921,,,A*5A
$GPGGA,042401.71,5034.870068,N,03635.600044,E,1,06,1.2,223.2,M,17.3,M,,*6E
$GPGSV,3,1,12,10,32,194,24,13,16,054,33,18,70,062,32,23,61,163,26*7B
$GPGSV,3,2,12,16,48,275,15,26,38,225,26,27,31,302,11,15,25,084,36*76
$GPGSV,3,3,12,29,21,122,37,05,11,043,22,07,04,343,,08,03,304,*7E
$GPGSA,A,3,10,13,,,,,,,,,,,3.6,2.6,2.6*34
$GPRMC,042401.71,A,5034.870068,N,03635.600044,E,,,300921,,,A*54
$GPGGA,042403.00,,,,,0,06,20.0,,M,,M,,*53
$GPGSV,3,1,12,10,32,194,24,13,16,054,34,18,70,062,32,23,61,163,25*7F
$GPGSV,3,2,12,16,48,275,15,26,38,225,28,27,31,302,11,15,25,084,36*78
$GPGSV,3,3,12,29,21,122,36,05,11,043,22,07,04,342,,08,03,304,*7E
$GPGSA,A,1,,,,,,,,,,,,,107.8,99.0,42.7*3F
$GPRMC,042403.00,V,,,,,,,300921,,,N*75
$GPGGA,042404.00,5034.870068,N,03635.600044,E,1,06,1.2,215.4,M,17.3,M,,*6E
$GPGSV,3,1,12,10,32,194,26,13,16,054,34,18,70,062,32,23,61,163,25*7D
$GPGSV,3,2,12,16,48,275,15,26,38,225,29,27,31,302,11,15,25,084,35*7A
$GPGSV,3,3,12,29,21,122,35,05,11,043,23,07,04,342,,08,03,304,*7C
$GPGSA,A,3,10,13,,,,,,,,,,,3.6,2.6,2.6*34
$GPRMC,042404.00,A,5034.870068,N,03635.600044,E,000.0,,300921,,,A*79
$GPGGA,042405.00,5034.870068,N,03635.600044,E,1,06,1.2,210.3,M,17.3,M,,*6D
$GPGSV,3,1,12,10,32,194,26,13,16,054,34,18,70,062,32,23,61,163,25*7D
$GPGSV,3,2,12,16,48,275,19,26,38,225,29,27,31,302,11,15,25,084,35*76
$GPGSV,3,3,12,29,21,122,34,05,11,043,23,07,04,342,,08,03,304,*7D
$GPGSA,A,3,10,13,,,,,,,,,,,3.6,2.6,2.6*34
$GPRMC,042405.00,A,5034.870068,N,03635.600044,E,000.0,,300921,,,A*78
$GPGGA,042406.00,5034.870068,N,03635.600044,E,1,06,1.2,212.1,M,17.3,M,,*6E
$GPGSV,3,1,12,10,32,194,26,13,16,054,34,18,70,062,32,23,61,163,25*7D
$GPGSV,3,2,12,16,48,275,19,26,38,225,29,27,31,302,13,15,25,084,35*74
$GPGSV,3,3,12,29,21,122,33,05,11,043,23,07,04,342,,08,03,304,*7A
$GPGSA,A,3,10,13,,,,,,,,,,,3.6,2.6,2.6*34
$GPRMC,042406.00,A,5034.870068,N,03635.600044,E,000.0,,300921,,,A*7B
$GPGGA,042407.00,5034.874503,N,03635.610654,E,1,06,1.6,243.3,M,17.3,M,,*67
$GPGSV,3,1,12,10,32,194,25,13,16,054,34,18,70,062,32,23,61,163,25*7E
$GPGSV,3,2,12,16,48,275,20,26,38,225,30,27,31,302,13,15,25,084,35*76
$GPGSV,3,3,12,29,21,122,33,05,11,043,23,07,04,342,,08,03,304,*7A
$GPGSA,A,3,10,13,,,,,,,,,,,3.0,1.8,2.4*3D
$GPRMC,042407.00,A,5034.874503,N,03635.610654,E,000.0,,300921,,,A*70
$GPGGA,042408.00,5034.874503,N,03635.610654,E,1,07,1.6,250.7,M,17.3,M,,*6F
$GPGSV,3,1,12,10,32,194,25,13,16,054,34,18,70,062,32,23,61,163,25*7E
$GPGSV,3,2,12,16,48,275,20,26,38,225,30,27,31,302,13,15,25,084,35*76
$GPGSV,3,3,12,29,21,122,32,05,11,043,23,07,04,342,,08,03,304,*7B
$GPGSA,A,3,10,13,,,,,,,,,,,3.0,1.8,2.4*3D
$GPRMC,042408.00,A,5034.874503,N,03635.610654,E,000.0,,300921,,,A*7F
$GPGGA,042409.00,5034.874503,N,03635.610654,E,1,07,1.6,256.5,M,17.3,M,,*6A
$GPGSV,3,1,12,10,32,194,25,13,16,054,34,18,70,062,32,23,61,163,26*7D
$GPGSV,3,2,12,16,48,275,19,26,38,225,30,27,31,302,13,15,25,084,35*7C
$GPGSV,3,3,12,29,21,122,31,05,11,043,23,07,04,342,,08,03,304,*78
$GPGSA,A,3,10,13,,,,,,,,,,,3.0,1.8,2.4*3D
$GPRMC,042409.00,A,5034.874503,N,03635.610654,E,000.0,,300921,,,A*7E
$GPGGA,042410.00,5034.874503,N,03635.610654,E,1,07,1.2,252.4,M,17.3,M,,*63
$GPGSV,3,1,12,10,32,194,25,13,16,054,34,18,70,062,32,23,61,163,27*7C
$GPGSV,3,2,12,16,48,275,19,26,38,225,30,27,31,302,12,15,25,084,35*7D
$GPGSV,3,3,12,29,21,122,31,05,11,043,23,07,04,342,,08,03,304,*78
$GPGSA,A,3,10,13,,,,,,,,,,,3.0,1.8,2.4*3D
$GPRMC,042410.00,A,5034.874503,N,03635.610654,E,000.0,,300921,,,A*76
$GPGGA,042411.00,5034.874503,N,03635.610654,E,1,07,1.2,252.1,M,17.3,M,,*67
$GPGSV,3,1,12,10,32,194,27,13,16,054,33,18,70,062,32,23,61,163,30*7F
$GPGSV,3,2,12,16,48,275,19,26,38,225,29,27,31,302,12,15,25,084,35*75
$GPGSV,3,3,12,29,21,122,30,05,11,043,23,07,04,342,,08,03,304,*79
$GPGSA,A,3,10,13,,,,,,,,,,,4.3,1.8,4.0*3B
$GPRMC,042411.00,A,5034.874503,N,03635.610654,E,000.0,,300921,,,A*77
$GPGGA,042412.00,5034.874503,N,03635.610654,E,1,07,1.2,249.7,M,17.3,M,,*68
$GPGSV,3,1,12,10,32,194,29,13,16,054,33,18,70,062,32,23,61,163,30*71
$GPGSV,3,2,12,16,48,275,19,26,38,225,28,27,31,302,12,15,25,084,35*74
$GPGSV,3,3,12,29,21,122,30,05,11,043,23,07,04,342,,08,03,304,*79
$GPGSA,A,3,10,13,,,,,,,,,,,3.6,2.6,2.6*34
$GPRMC,042412.00,A,5034.874503,N,03635.610654,E,000.0,,300921,,,A*74
$GPGGA,042413.00,5034.874503,N,03635.610654,E,1,07,1.2,244.9,M,17.3,M,,*6A
$GPGSV,3,1,12,10,32,194,29,13,16,054,32,18,70,062,32,23,61,163,30*70
$GPGSV,3,2,12,16,48,275,19,26,38,225,27,27,31,302,12,15,25,084,36*78
$GPGSV,3,3,12,29,21,122,29,05,11,043,23,07,04,342,,08,03,304,*71
$GPGSA,A,3,10,13,,,,,,,,,,,3.6,2.6,2.6*34
$GPRMC,042413.00,A,5034.874503,N,03635.610654,E,000.0,,300921,,,A*75
$GPGGA,042414.00,5034.874503,N,03635.610654,E,1,07,1.2,240.4,M,17.3,M,,*64
$GPGSV,3,1,12,10,32,194,30,13,16,054,32,18,70,062,33,23,61,163,31*78
$GPGSV,3,2,12,16,48,275,19,26,38,225,25,27,31,302,11,15,25,084,36*79
$GPGSV,3,3,12,29,21,122,29,05,11,043,23,07,04,342,,08,03,304,*71
$GPGSA,A,3,10,13,,,,,,,,,,,3.6,2.6,2.6*34
$GPRMC,042414.00,A,5034.874503,N,03635.610654,E,000.0,,300921,,,A*72
$GPGGA,042415.00,5034.874503,N,03635.610654,E,1,07,0.8,238.2,M,17.3,M,,*67
$GPGSV,3,1,12,10,32,194,30,13,16,054,31,18,70,062,33,23,61,163,31*7B
$GPGSV,3,2,12,16,48,275,20,26,38,225,24,27,31,302,11,15,25,084,37*73
$GPGSV,3,3,12,29,21,122,28,05,11,043,22,07,04,342,,08,03,304,*71
$GPGSA,A,3,10,13,,,,,,,,,,,3.0,1.8,2.4*3D
$GPRMC,042415.00,A,5034.874503,N,03635.610654,E,000.0,,300921,,,A*73
$GPGGA,042416.00,5034.874503,N,03635.610654,E,1,07,1.2,235.1,M,17.3,M,,*61
$GPGSV,3,1,12,10,32,194,30,13,16,054,34,18,70,062,33,23,61,163,31*7E
$GPGSV,3,2,12,16,48,275,22,26,38,225,24,27,31,302,12,15,25,084,36*73
$GPGSV,3,3,12,29,21,122,27,05,11,043,23,07,04,342,,08,03,304,*7F
$GPGSA,A,3,10,13,,,,,,,,,,,3.6,2.6,2.6*34
$GPRMC,042416.00,A,5034.874503,N,03635.610654,E,000.0,,300921,,,A*70
$GPGGA,042417.00,5034.874503,N,03635.610654,E,1,07,1.2,235.3,M,17.3,M,,*62
$GPGSV,3,1,12,10,32,194,30,13,16,054,33,18,70,062,33,23,61,163,31*79
$GPGSV,3,2,12,16,48,275,22,26,38,225,23,27,31,302,13,15,25,084,36*75
$GPGSV,3,3,12,29,21,122,28,05,11,043,22,07,04,342,,08,03,304,*71
$GPGSA,A,3,10,13,,,,,,,,,,,3.6,2.6,2.6*34
$GPRMC,042417.00,A,5034.874503,N,03635.610654,E,000.0,,300921,,,A*71
$GPGGA,042418.00,5034.874503,N,03635.610654,E,1,07,1.6,235.0,M,17.3,M,,*6A
$GPGSV,3,1,12,10,32,194,29,13,16,054,33,18,70,062,33,23,61,163,31*71
$GPGSV,3,2,12,16,48,275,21,26,38,225,23,27,31,302,15,15,25,084,36*70
$GPGSV,3,3,12,29,21,122,29,05,11,043,22,07,04,342,,08,03,304,*70
$GPGSA,A,3,10,13,,,,,,,,,,,3.6,2.6,2.6*34
$GPRMC,042418.00,A,5034.874503,N,03635.610654,E,000.0,,300921,,,A*7E
$GPGGA,042419.00,5034.874503,N,03635.610654,E,1,08,1.2,237.8,M,17.3,M,,*6A
$GPGSV,3,1,12,10,32,194,28,13,16,054,33,18,70,062,33,23,61,163,31*70
$GPGSV,3,2,12,16,48,275,21,26,38,225,23,27,31,302,19,15,25,084,35*7F
$GPGSV,3,3,12,29,21,122,29,05,11,043,21,07,04,342,,08,03,304,*73
$GPGSA,A,3,10,13,15,,,,,,,,,,4.1,1.7,3.8*3D
$GPRMC,042419.00,A,5034.874503,N,03635.610654,E,000.0,,300921,,,A*7F
$GPGGA,042420.00,5034.874503,N,03635.610654,E,1,08,1.2,237.9,M,17.3,M,,*61
$GPGSV,3,1,12,10,32,194,27,15,25,084,35,13,16,054,33,18,70,062,32*77
$GPGSV,3,2,12,23,61,163,31,16,48,275,21,26,38,225,23,27,31,302,19*76
$GPGSV,3,3,12,29,21,122,29,05,11,043,21,07,04,342,,08,03,304,*73
$GPGSA,A,3,10,13,15,,,,,,,,,,4.1,1.7,3.8*3D
$GPRMC,042420.00,A,5034.874503,N,03635.610654,E,000.0,,300921,,,A*75
$GPGGA,042421.00,5034.874503,N,03635.610654,E,1,08,1.6,238.3,M,17.3,M,,*61
$GPGSV,3,1,12,10,32,194,27,15,25,084,34,13,16,054,33,18,70,062,32*76
$GPGSV,3,2,12,23,61,163,31,16,48,275,21,26,38,225,23,27,31,302,21*7D
$GPGSV,3,3,12,29,21,122,29,05,11,043,21,07,04,342,,08,03,304,*73
$GPGSA,A,3,10,13,15,,,,,,,,,,4.1,1.7,3.8*3D
$GPRMC,042421.00,A,5034.874503,N,03635.610654,E,000.0,,300921,,,A*74
$GPGGA,042422.00,5034.874503,N,03635.610654,E,1,08,2.4,239.7,M,17.3,M,,*66
$GPGSV,3,1,12,10,32,194,27,15,25,084,34,13,16,054,34,18,70,062,32*71
$GPGSV,3,2,12,23,61,163,31,16,48,275,21,26,38,225,23,27,31,302,21*7D
$GPGSV,3,3,12,29,21,122,28,05,11,043,20,07,04,342,,08,03,304,*73
$GPGSA,A,3,10,13,15,,,,,,,,,,6.7,4.4,5.1*30
$GPRMC,042422.00,A,5034.874503,N,03635.610654,E,000.0,,300921,,,A*77
$GPGGA,042423.00,5034.874503,N,03635.610654,E,1,08,2.4,242.0,M,17.3,M,,*6C
$GPGSV,3,1,12,10,32,194,26,15,25,084,34,13,16,054,34,18,70,062,31*73
$GPGSV,3,2,12,23,61,163,31,16,48,275,20,26,38,225,23,27,31,302,21*7C
$GPGSV,3,3,12,29,21,123,28,05,11,043,20,07,04,342,,08,03,304,*72
$GPGSA,A,3,10,13,15,,,,,,,,,,6.7,4.4,5.1*30
$GPRMC,042423.00,A,5034.874503,N,03635.610654,E,000.0,,300921,,,A*76
$GPGGA,042424.00,5034.874503,N,03635.610654,E,1,08,2.4,242.8,M,17.3,M,,*63
$GPGSV,3,1,12,10,32,194,26,15,25,084,34,13,16,054,34,18,70,062,31*73
$GPGSV,3,2,12,23,61,163,31,16,48,275,20,26,38,225,22,27,31,302,21*7D
$GPGSV,3,3,12,29,21,123,27,05,11,043,19,07,04,342,,08,03,304,*77
$GPGSA,A,3,10,13,15,,,,,,,,,,6.7,4.4,5.1*30
$GPRMC,042424.00,A,5034.874503,N,03635.610654,E,000.0,,300921,,,A*71
$GPGGA,042425.00,5034.874503,N,03635.610654,E,1,08,2.4,242.4,M,17.3,M,,*6E
$GPGSV,3,1,12,10,32,194,26,15,25,084,34,13,16,054,34,18,70,062,31*73
$GPGSV,3,2,12,23,61,163,31,16,48,275,20,26,38,225,22,27,31,302,21*7D
$GPGSV,3,3,12,29,21,123,26,05,11,043,19,07,04,342,,08,03,304,*76
$GPGSA,A,3,10,13,15,,,,,,,,,,6.7,4.4,5.1*30
$GPRMC,042425.00,A,5034.874503,N,03635.610654,E,000.0,,300921,,,A*70
$GPGGA,042426.00,5034.874503,N,03635.610654,E,1,08,2.4,240.6,M,17.3,M,,*6D
$GPGSV,3,1,12,10,32,194,26,15,25,084,33,13,16,054,34,18,70,062,30*75
$GPGSV,3,2,12,23,61,163,31,16,48,275,19,26,38,224,22,27,31,302,21*76
$GPGSV,3,3,12,29,21,123,26,05,11,043,19,07,04,342,,08,03,304,*76
$GPGSA,A,3,10,13,15,,,,,,,,,,6.7,4.4,5.1*30
$GPRMC,042426.00,A,5034.874503,N,03635.610654,E,000.0,,300921,,,A*73
$GPGGA,042427.00,5034.874503,N,03635.610654,E,1,08,2.4,239.9,M,17.3,M,,*6D
$GPGSV,3,1,12,10,32,194,25,15,25,084,33,13,16,054,34,18,70,062,30*76
$GPGSV,3,2,12,23,61,163,31,16,48,275,19,26,38,224,21,27,31,302,21*75
$GPGSV,3,3,12,29,20,123,25,05,11,043,18,07,04,342,,08,03,304,*75
$GPGSA,A,3,10,13,15,,,,,,,,,,6.7,4.4,5.1*30
$GPRMC,042427.00,A,5034.874503,N,03635.610654,E,000.0,,300921,,,A*72
$GPGGA,042428.00,5034.874503,N,03635.610654,E,1,08,2.4,239.2,M,17.3,M,,*69
$GPGSV,3,1,12,10,32,194,26,15,25,084,33,13,16,054,34,18,70,062,30*75
$GPGSV,3,2,12,23,61,163,31,16,48,275,18,26,38,224,21,27,31,302,21*74
$GPGSV,3,3,12,29,20,123,24,05,11,043,18,07,04,342,,08,03,304,*74
$GPGSA,A,3,10,13,15,,,,,,,,,,6.7,4.4,5.1*30
$GPRMC,042428.00,A,5034.874503,N,03635.610654,E,000.0,,300921,,,A*7D
$GPGGA,042429.00,5034.874503,N,03635.610654,E,1,08,2.4,238.2,M,17.3,M,,*69
$GPGSV,3,1,12,10,32,194,25,15,25,084,33,13,16,054,34,18,70,062,30*76
$GPGSV,3,2,12,23,61,163,31,16,48,275,18,26,38,224,20,27,31,302,21*75
$GPGSV,3,3,12,29,20,123,24,05,11,043,18,07,04,342,,08,03,304,*74
$GPGSA,A,3,10,13,15,,,,,,,,,,6.7,4.4,5.1*30
$GPRMC,042429.00,A,5034.874503,N,03635.610654,E,000.0,,300921,,,A*7C
$GPGGA,042430.00,5034.874503,N,03635.610654,E,1,08,2.4,237.0,M,17.3,M,,*6C
$GPGSV,3,1,12,10,32,194,25,15,25,084,33,13,16,054,34,18,70,062,30*76
$GPGSV,3,2,12,23,61,163,31,16,48,275,17,26,38,224,20,27,31,302,21*7A
$GPGSV,3,3,12,29,20,123,24,05,11,043,18,07,04,342,,08,03,304,*74
$GPGSA,A,3,10,13,15,,,,,,,,,,6.7,4.4,5.1*30
$GPRMC,042430.00,A,5034.874503,N,03635.610654,E,000.0,,300921,,,A*74
$GPGGA,042431.00,5034.876065,N,03635.618728,E,1,09,0.8,235.4,M,17.3,M,,*61
$GPGSV,3,1,12,10,32,194,27,15,25,084,33,13,16,054,35,18,70,062,30*75
$GPGSV,3,2,12,23,61,163,32,16,48,275,17,26,38,224,19,27,31,302,21*73
$GPGSV,3,3,12,29,20,123,24,05,11,043,19,07,04,342,,08,03,304,*75
$GPGSA,A,3,10,13,15,23,,,,,,,,,3.0,1.7,2.4*37
$GPRMC,042431.00,A,5034.876065,N,03635.618728,E,000.0,,300921,,,A*70
$GPGGA,042432.00,5034.876065,N,03635.618728,E,1,09,2.4,235.4,M,17.3,M,,*6C
$GPGSV,3,1,12,23,61,163,32,10,32,194,28,15,25,084,33,13,16,054,36*73
$GPGSV,3,2,12,18,70,062,29,16,48,275,16,26,38,224,19,27,31,302,20*71
$GPGSV,3,3,12,29,20,123,24,05,11,043,19,07,04,342,,08,03,304,*75
$GPGSA,A,3,10,13,15,23,,,,,,,,,6.7,4.4,5.0*30
$GPRMC,042432.00,A,5034.876065,N,03635.618728,E,000.0,,300921,,,A*73
$GPGGA,042433.00,5034.876065,N,03635.618728,E,1,09,2.4,235.4,M,17.3,M,,*6D
$GPGSV,3,1,12,23,61,163,32,10,32,194,29,15,25,084,34,13,16,054,36*75
$GPGSV,3,2,12,18,70,062,30,16,48,275,16,26,38,224,18,27,31,302,20*78
$GPGSV,3,3,12,29,20,123,23,05,11,043,19,07,04,342,,08,03,304,*72
$GPGSA,A,3,10,13,15,23,,,,,,,,,6.7,4.4,5.0*30
$GPRMC,042433.00,A,5034.876065,N,03635.618728,E,000.0,,300921,,,A*72
$GPGGA,042434.00,5034.876065,N,03635.618728,E,1,10,1.2,235.3,M,17.3,M,,*60
$GPGSV,3,1,12,23,61,163,32,10,32,194,28,15,25,084,33,13,16,054,36*73
$GPGSV,3,2,12,18,70,062,30,16,48,275,16,26,38,224,18,27,31,302,20*78
$GPGSV,3,3,12,29,20,123,23,05,11,043,19,07,04,342,,08,03,304,*72
$GPGSA,A,3,10,13,15,23,,,,,,,,,3.2,2.0,2.5*30
$GPRMC,042434.00,A,5034.876065,N,03635.618728,E,000.0,,300921,,,A*75
$GPGGA,042435.00,5034.876065,N,03635.618728,E,1,10,1.2,235.3,M,17.3,M,,*61
$GPGSV,3,1,12,23,61,163,33,10,32,194,28,15,25,084,33,13,16,054,36*72
$GPGSV,3,2,12,18,70,062,30,16,48,274,15,26,38,224,18,27,31,302,19*70
$GPGSV,3,3,12,29,20,123,23,05,11,043,19,07,04,342,,08,03,304,*72
$GPGSA,A,3,10,13,15,23,,,,,,,,,3.2,2.0,2.5*30
$GPRMC,042435.00,A,5034.876065,N,03635.618728,E,000.0,,300921,,,A*74
$GPGGA,042436.00,5034.876065,N,03635.618728,E,1,10,0.8,235.2,M,17.3,M,,*68
$GPGSV,3,1,12,23,61,163,34,10,32,194,28,15,25,084,34,13,16,054,36*72
$GPGSV,3,2,12,18,70,062,31,16,48,274,15,26,38,224,18,27,31,302,19*71
$GPGSV,3,3,12,29,20,123,23,05,11,043,22,07,04,342,,08,03,304,*7A
$GPGSA,A,3,10,13,15,23,,,,,,,,,2.6,1.4,2.1*36
$GPRMC,042436.00,A,5034.876065,N,03635.618728,E,000.0,,300921,,,A*77
$GPGGA,042437.00,5034.876065,N,03635.618728,E,1,10,0.8,235.2,M,17.3,M,,*69
$GPGSV,3,1,12,23,61,163,35,10,32,194,29,15,25,084,34,13,16,054,36*72
$GPGSV,3,2,12,18,70,062,33,16,48,274,15,26,38,224,22,27,31,302,18*7B
$GPGSV,3,3,12,29,20,123,23,05,11,043,22,07,04,342,,08,03,304,*7A
$GPGSA,A,3,10,13,15,23,,,,,,,,,3.1,1.9,2.4*38
$GPRMC,042437.00,A,5034.876065,N,03635.618728,E,000.0,,300921,,,A*76
$GPGGA,042438.00,5034.876065,N,03635.618728,E,1,10,0.8,235.1,M,17.3,M,,*65
$GPGSV,3,1,12,23,61,163,35,10,33,194,29,15,25,084,34,13,16,054,36*73
$GPGSV,3,2,12,18,70,062,33,16,48,274,15,26,38,224,22,27,31,302,18*7B
$GPGSV,3,3,12,29,20,123,23,05,11,043,23,07,04,342,,08,03,304,*7B
$GPGSA,A,3,10,13,15,23,,,,,,,,,2.6,1.9,1.7*3E
$GPRMC,042438.00,A,5034.876065,N,03635.618728,E,000.0,,300921,,,A*79
$GPGGA,042439.00,5034.876065,N,03635.618728,E,1,10,0.8,235.0,M,17.3,M,,*65
$GPGSV,3,1,12,23,61,163,35,10,33,194,29,15,25,084,34,13,16,054,36*73
$GPGSV,3,2,12,18,70,062,32,16,48,274,15,26,38,224,22,27,31,302,17*75
$GPGSV,3,3,12,29,20,123,25,05,11,043,23,07,04,342,,08,03,304,*7D
$GPGSA,A,3,10,13,15,23,,,,,,,,,2.0,1.6,1.3*33
$GPRMC,042439.00,A,5034.876065,N,03635.618728,E,000.0,,300921,,,A*78
$GPGGA,042440.00,5034.876065,N,03635.618728,E,1,10,0.8,234.9,M,17.3,M,,*63
$GPGSV,3,1,12,23,61,163,35,10,33,194,28,15,25,084,34,13,16,054,36*72
$GPGSV,3,2,12,18,70,062,32,16,48,274,16,26,38,224,22,27,31,302,17*76
$GPGSV,3,3,12,29,20,123,26,05,11,043,23,07,04,342,,08,03,304,*7E
$GPGSA,A,3,10,13,15,23,,,,,,,,,2.0,1.6,1.3*33
$GPRMC,042440.00,A,5034.876065,N,03635.618728,E,000.0,,300921,,,A*76
$GPGGA,042441.00,5034.876065,N,03635.618728,E,1,10,1.6,234.8,M,17.3,M,,*6C
$GPGSV,3,1,12,23,61,163,35,10,33,194,29,15,25,084,34,13,16,054,36*73
$GPGSV,3,2,12,18,70,062,33,16,48,274,16,26,38,224,23,27,31,302,16*77
$GPGSV,3,3,12,29,20,123,26,05,11,043,22,07,04,342,,08,03,304,*7F
$GPGSA,A,3,10,13,15,23,,,,,,,,,1.8,1.3,1.2*3C
$GPRMC,042441.00,A,5034.876065,N,03635.618728,E,000.0,,300921,,,A*77
$GPGGA,042442.00,5034.876065,N,03635.618728,E,1,10,1.2,234.7,M,17.3,M,,*64
$GPGSV,3,1,12,23,61,163,35,10,33,194,31,15,25,084,35,13,16,054,36*7B
$GPGSV,3,2,12,18,70,062,33,16,48,274,16,26,38,224,25,27,31,302,16*71
$GPGSV,3,3,12,29,20,123,25,05,11,043,22,07,04,342,,08,03,304,*7C
$GPGSA,A,3,10,13,15,23,,,,,,,,,1.8,1.3,1.2*3C
$GPRMC,042442.00,A,5034.876065,N,03635.618728,E,000.0,,300921,,,A*74
$GPGGA,042443.00,5034.876065,N,03635.618728,E,1,10,1.2,234.5,M,17.3,M,,*67
$GPGSV,3,1,12,23,61,163,35,10,33,194,31,15,25,084,35,13,16,054,36*7B
$GPGSV,3,2,12,18,70,062,33,16,48,274,16,26,38,224,25,27,31,302,15*72
$GPGSV,3,3,12,29,20,123,25,05,11,043,22,07,04,342,,08,03,304,*7C
$GPGSA,A,3,10,13,15,23,,,,,,,,,1.8,1.3,1.2*3C
$GPRMC,042443.00,A,5034.876065,N,03635.618728,E,000.0,,300921,,,A*75
$GPGGA,042444.00,5034.876065,N,03635.618728,E,1,10,1.2,234.4,M,17.3,M,,*61
$GPGSV,3,1,12,23,61,163,35,10,33,194,31,15,25,084,35,13,16,054,35*78
$GPGSV,3,2,12,18,70,062,33,16,48,274,16,26,38,224,25,27,31,302,15*72
$GPGSV,3,3,12,29,20,123,31,05,11,043,21,07,04,342,,08,03,304,*7A
$GPGSA,A,3,10,13,15,23,,,,,,,,,2.4,1.8,1.6*3C
$GPRMC,042444.00,A,5034.876065,N,03635.618728,E,000.0,,300921,,,A*72
$GPGGA,042445.00,5034.876065,N,03635.618728,E,1,10,1.2,234.3,M,17.3,M,,*67
$GPGSV,3,1,12,23,61,163,35,10,33,194,31,15,25,084,35,13,16,054,35*78
$GPGSV,3,2,12,18,70,062,33,16,48,274,15,26,38,224,24,27,31,302,14*71
$GPGSV,3,3,12,29,20,123,31,05,11,043,21,07,04,342,,08,03,304,*7A
$GPGSA,A,3,10,13,15,23,,,,,,,,,1.8,1.3,1.2*3C
$GPRMC,042445.00,A,5034.876065,N,03635.618728,E,000.0,,300921,,,A*73
$GPGGA,042446.00,5034.876065,N,03635.618728,E,1,10,0.8,234.2,M,17.3,M,,*6E
$GPGSV,3,1,12,23,61,163,35,10,33,194,31,15,25,084,34,13,16,054,35*79
$GPGSV,3,2,12,18,70,062,33,16,48,274,15,26,38,224,24,27,31,302,13*76
$GPGSV,3,3,12,29,20,123,31,05,11,043,20,07,04,342,,08,03,304,*7B
$GPGSA,A,3,10,13,15,23,,,,,,,,,1.8,1.3,1.2*3C
$GPRMC,042446.00,A,5034.876065,N,03635.618728,E,000.0,,300921,,,A*70
$GPGGA,042447.00,5034.876065,N,03635.618728,E,1,10,0.8,234.1,M,17.3,M,,*6C
$GPGSV,3,1,12,23,61,163,35,10,33,194,31,15,25,084,34,13,16,054,35*79
$GPGSV,3,2,12,18,70,062,33,16,48,274,15,26,38,224,24,27,31,302,13*76
$GPGSV,3,3,12,29,20,123,30,05,11,043,20,07,04,342,,08,03,304,*7A
$GPGSA,A,3,10,13,15,23,,,,,,,,,1.8,1.3,1.2*3C
$GPRMC,042447.00,A,5034.876065,N,03635.618728,E,000.0,,300921,,,A*71
$GPGGA,042448.00,5034.876065,N,03635.618728,E,1,10,0.8,234.0,M,17.3,M,,*62
$GPGSV,3,1,12,23,61,163,35,10,33,194,31,15,25,083,34,13,16,054,35*7E
$GPGSV,3,2,12,18,70,062,33,16,48,274,15,26,38,224,24,27,31,302,12*77
$GPGSV,3,3,12,29,20,123,30,05,11,043,20,07,04,342,,08,03,304,*7A
$GPGSA,A,3,10,13,15,23,,,,,,,,,1.8,1.3,1.2*3C
$GPRMC,042448.00,A,5034.876065,N,03635.618728,E,000.0,,300921,,,A*7E
$GPGGA,042449.00,5034.876065,N,03635.618728,E,1,11,0.8,233.9,M,17.3,M,,*6C
$GPGSV,3,1,12,23,61,163,34,10,33,194,31,15,25,083,34,13,16,054,36*7C
$GPGSV,3,2,12,18,70,062,33,16,48,274,16,26,38,224,24,27,31,302,09*7E
$GPGSV,3,3,12,29,20,123,30,05,11,043,20,07,04,342,,08,03,304,*7A
$GPGSA,A,3,10,13,15,18,23,,,,,,,,1.7,1.3,1.1*39
$GPRMC,042449.00,A,5034.876065,N,03635.618728,E,000.0,,300921,,,A*7F
$GPGGA,042450.00,5034.876065,N,03635.618728,E,1,11,0.6,233.8,M,17.3,M,,*6B
$GPGSV,3,1,12,18,70,062,34,23,61,163,34,10,33,194,31,15,25,083,34*70
$GPGSV,3,2,12,13,16,054,36,16,48,274,18,26,38,224,23,29,20,123,29*71
$GPGSV,3,3,12,05,11,043,20,27,31,302,,07,04,342,,08,03,304,*76
$GPGSA,A,3,10,13,15,18,23,,,,,,,,1.7,1.3,1.1*39
$GPRMC,042450.00,A,5034.876065,N,03635.618728,E,000.0,,300921,,,A*77
$GPGGA,042451.00,5034.876065,N,03635.618728,E,1,11,0.6,233.7,M,17.3,M,,*65
$GPGSV,3,1,12,18,70,062,33,23,61,163,34,10,33,194,31,15,25,083,34*77
$GPGSV,3,2,12,13,16,054,35,16,48,274,20,26,38,224,22,29,20,123,29*78
$GPGSV,3,3,12,05,11,043,20,27,31,302,,07,04,342,,08,03,304,*76
$GPGSA,A,3,10,13,15,18,23,,,,,,,,1.7,1.3,1.1*39
$GPRMC,042451.00,A,5034.876065,N,03635.618728,E,000.0,,300921,,,A*76
$GPGGA,042452.00,5034.876065,N,03635.618728,E,1,11,1.2,233.6,M,17.3,M,,*62
$GPGSV,3,1,12,18,70,062,34,23,61,163,34,10,33,194,30,15,25,083,35*70
$GPGSV,3,2,12,13,16,054,36,16,48,274,20,26,38,224,22,29,20,123,30*73
$GPGSV,3,3,12,05,11,043,20,27,31,302,,07,04,342,,08,03,304,*76
$GPGSA,A,3,10,13,15,18,23,,,,,,,,1.7,1.3,1.1*39
$GPRMC,042452.00,A,5034.876065,N,03635.618728,E,000.0,,300921,,,A*75
$GPGGA,042453.00,5034.876065,N,03635.618728,E,1,11,1.2,233.5,M,17.3,M,,*60
$GPGSV,3,1,12,18,70,062,34,23,61,163,33,10,33,194,30,15,26,083,35*74
$GPGSV,3,2,12,13,16,054,36,16,48,274,20,26,38,224,22,27,31,302,13*7D
$GPGSV,3,3,12,29,20,123,30,05,11,043,19,07,04,342,,08,03,304,*70
$GPGSA,A,3,10,13,15,18,23,,,,,,,,1.7,1.3,1.1*39
$GPRMC,042453.00,A,5034.876065,N,03635.618728,E,000.0,,300921,,,A*74
$GPGGA,042454.00,5034.876065,N,03635.618728,E,1,11,0.8,233.4,M,17.3,M,,*6D
$GPGSV,3,1,12,18,70,062,34,23,61,163,33,10,33,194,29,15,26,083,35*7C
$GPGSV,3,2,12,13,16,054,36,16,48,274,19,26,38,224,24,27,31,302,13*71
$GPGSV,3,3,12,29,20,123,30,05,11,043,19,07,04,342,,08,03,304,*70
$GPGSA,A,3,10,13,15,18,23,,,,,,,,1.9,1.5,1.1*31
$GPRMC,042454.00,A,5034.876065,N,03635.618728,E,000.0,,300921,,,A*73
$GPGGA,042455.00,5034.876065,N,03635.618728,E,1,11,0.8,233.3,M,17.3,M,,*6B
$GPGSV,3,1,12,18,70,062,34,23,61,163,32,10,33,194,29,15,26,083,35*7D
$GPGSV,3,2,12,13,16,054,36,16,48,274,19,26,38,224,24,27,31,302,13*71
$GPGSV,3,3,12,29,20,123,30,05,11,043,19,07,04,342,,08,03,304,*70
$GPGSA,A,3,10,13,15,18,23,,,,,,,,1.9,1.5,1.1*31
$GPRMC,042455.00,A,5034.876065,N,03635.618728,E,000.0,,300921,,,A*72
$GPGGA,042456.00,5034.876065,N,03635.618728,E,1,11,0.8,233.1,M,17.3,M,,*6A
$GPGSV,3,1,12,18,70,062,34,23,61,163,32,10,33,194,29,15,26,083,35*7D
$GPGSV,3,2,12,13,16,054,36,16,48,274,19,26,38,224,24,27,31,302,13*71
$GPGSV,3,3,12,29,20,123,30,05,11,043,21,07,04,342,,08,03,304,*7B
$GPGSA,A,3,10,13,15,18,23,,,,,,,,1.9,1.5,1.1*31
$GPRMC,042456.00,A,5034.876065,N,03635.618728,E,000.0,,300921,,,A*71
$GPGGA,042457.00,5034.876065,N,03635.618728,E,1,11,0.8,233.0,M,17.3,M,,*6A
$GPGSV,3,1,12,18,70,062,34,23,61,163,32,10,33,194,28,15,26,083,35*7C
$GPGSV,3,2,12,13,16,054,36,16,48,274,19,26,38,224,24,27,31,302,13*71
$GPGSV,3,3,12,29,20,123,30,05,11,043,21,07,04,342,,08,03,304,*7B
$GPGSA,A,3,10,13,15,18,23,,,,,,,,1.7,1.3,1.1*39
$GPRMC,042457.00,A,5034.876065,N,03635.618728,E,000.0,,300921,,,A*70
$GPGGA,042458.00,5034.876065,N,03635.618728,E,1,11,0.8,232.9,M,17.3,M,,*6D
$GPGSV,3,1,12,18,70,062,34,23,61,163,31,10,33,194,28,15,26,083,35*7F
$GPGSV,3,2,12,13,16,054,35,16,48,274,20,26,38,224,23,27,31,302,13*7F
$GPGSV,3,3,12,29,20,123,30,05,11,043,22,07,04,342,,08,03,304,*78
$GPGSA,A,3,10,13,15,18,23,,,,,,,,1.7,1.3,1.1*39
$GPRMC,042458.00,A,5034.876065,N,03635.618728,E,000.0,,300921,,,A*7F
$GPGGA,042459.00,5034.876065,N,03635.618728,E,1,11,1.2,232.8,M,17.3,M,,*66
$GPGSV,3,1,12,18,70,062,34,23,61,163,31,10,33,194,28,15,26,083,36*7C
$GPGSV,3,2,12,13,16,054,35,16,48,274,20,26,38,224,23,27,31,302,12*7E
$GPGSV,3,3,12,29,20,123,30,05,11,043,22,07,04,342,,08,03,304,*78
$GPGSA,A,3,10,13,15,18,23,,,,,,,,1.7,1.3,1.1*39
$GPRMC,042459.00,A,5034.876065,N,03635.618728,E,000.0,,300921,,,A*7E
$GPGGA,042500.00,5034.876065,N,03635.618728,E,1,11,1.2,232.7,M,17.3,M,,*64
$GPGSV,3,1,12,18,70,062,33,23,61,163,30,10,33,194,27,15,26,083,36*75
$GPGSV,3,2,12,13,16,054,35,16,48,274,20,26,38,224,24,27,31,302,12*79
$GPGSV,3,3,12,29,20,123,30,05,11,043,22,07,04,342,,08,03,304,*78
$GPGSA,A,3,10,13,15,18,23,,,,,,,,1.7,1.3,1.1*39
$GPRMC,042500.00,A,5034.876065,N,03635.618728,E,000.0,,300921,,,A*73
$GPGGA,042501.00,5034.876065,N,03635.618728,E,1,12,1.2,232.6,M,17.3,M,,*67
$GPGSV,3,1,12,18,70,062,33,23,61,163,30,10,33,194,27,15,26,083,36*75
$GPGSV,3,2,12,13,16,054,35,16,48,274,20,26,38,224,24,27,31,302,12*79
$GPGSV,3,3,12,29,20,123,29,05,11,043,22,07,04,342,,08,03,304,*70
$GPGSA,A,3,10,13,15,18,23,29,,,,,,,1.6,1.1,1.1*31
$GPRMC,042501.00,A,5034.876065,N,03635.618728,E,000.0,,300921,,,A*72
$GPGGA,042502.00,5034.876065,N,03635.618728,E,1,12,1.2,232.5,M,17.3,M,,*67
$GPGSV,3,1,12,18,70,062,33,23,61,163,30,10,33,194,26,15,26,083,36*74
$GPGSV,3,2,12,29,20,123,29,13,16,054,35,16,48,274,20,26,38,224,25*7F
$GPGSV,3,3,12,27,31,302,12,05,11,043,22,07,04,342,,08,03,304,*77
$GPGSA,A,3,10,13,15,18,23,29,,,,,,,1.6,1.1,1.1*31
$GPRMC,042502.00,A,5034.876065,N,03635.618728,E,000.0,,300921,,,A*71
$GPGGA,042503.00,5034.876065,N,03635.618728,E,1,12,1.2,232.4,M,17.3,M,,*67
$GPGSV,3,1,12,18,70,062,33,23,61,163,29,10,33,194,26,15,26,083,36*7C
$GPGSV,3,2,12,29,20,123,29,13,16,054,35,16,48,274,20,26,38,224,25*7F
$GPGSV,3,3,12,27,31,302,12,05,11,043,22,07,04,342,,08,03,304,*77
$GPGSA,A,3,10,13,15,18,23,29,,,,,,,1.6,1.1,1.1*31
$GPRMC,042503.00,A,5034.876065,N,03635.618728,E,000.0,,300921,,,A*70
$GPGGA,042504.00,5034.876065,N,03635.618728,E,1,12,1.2,232.3,M,17.3,M,,*67
$GPGSV,3,1,12,18,70,062,33,23,61,163,29,10,33,194,25,15,26,083,36*7F
$GPGSV,3,2,12,29,20,123,29,13,16,054,35,16,48,274,20,26,38,224,26*7C
$GPGSV,3,3,12,27,31,302,12,05,11,043,22,07,04,342,,08,03,304,*77
$GPGSA,A,3,10,13,15,18,23,29,,,,,,,1.6,1.1,1.1*31
$GPRMC,042504.00,A,5034.876065,N,03635.618728,E,000.0,,300921,,,A*77
$GPGGA,042505.00,5034.876065,N,03635.618728,E,1,12,1.2,232.2,M,17.3,M,,*67
$GPGSV,3,1,12,18,70,062,33,23,61,163,29,10,33,194,24,15,26,083,36*7E
$GPGSV,3,2,12,29,20,123,28,13,16,054,35,16,48,274,20,26,38,224,26*7D
$GPGSV,3,3,12,27,31,302,11,05,11,043,22,07,04,342,,08,03,304,*74
$GPGSA,A,3,10,13,15,18,23,29,,,,,,,1.6,1.1,1.1*31
$GPRMC,042505.00,A,5034.876065,N,03635.618728,E,000.0,,300921,,,A*76
$GPGGA,042506.00,5034.876065,N,03635.618728,E,1,12,1.2,232.1,M,17.3,M,,*67
$GPGSV,3,1,12,18,70,062,33,23,61,163,28,10,33,194,24,15,26,083,36*7F
$GPGSV,3,2,12,29,20,123,28,13,16,054,34,16,48,274,21,26,38,224,27*7C
$GPGSV,3,3,12,27,31,302,11,05,11,043,22,07,04,342,,08,03,304,*74
$GPGSA,A,3,10,13,15,18,23,29,,,,,,,1.6,1.1,1.1*31
$GPRMC,042506.00,A,5034.876065,N,03635.618728,E,000.0,,300921,,,A*75
$GPGGA,042507.00,5034.876065,N,03635.618728,E,1,12,1.2,232.0,M,17.3,M,,*67
$GPGSV,3,1,12,18,70,062,33,23,61,163,28,10,33,194,23,15,26,083,36*78
$GPGSV,3,2,12,29,20,123,28,13,16,054,34,16,48,274,21,26,38,224,27*7C
$GPGSV,3,3,12,27,31,302,11,05,11,043,22,07,04,342,,08,03,304,*74
$GPGSA,A,3,10,13,15,18,23,29,,,,,,,1.6,1.1,1.1*31
$GPRMC,042507.00,A,5034.876065,N,03635.618728,E,000.0,,300921,,,A*74
$GPGGA,042508.00,5034.876065,N,03635.618728,E,1,12,1.2,231.9,M,17.3,M,,*62
$GPGSV,3,1,12,18,70,062,33,23,61,163,28,10,33,194,23,15,26,083,36*78
$GPGSV,3,2,12,29,20,123,28,13,16,054,34,16,48,274,21,26,38,224,27*7C
$GPGSV,3,3,12,27,31,302,10,05,11,043,22,07,04,342,,08,03,304,*75
$GPGSA,A,3,10,13,15,18,23,29,,,,,,,1.6,1.1,1.1*31
$GPRMC,042508.00,A,5034.876065,N,03635.618728,E,000.0,,300921,,,A*7B
$GPGGA,042509.00,5034.876065,N,03635.618728,E,1,12,1.2,231.8,M,17.3,M,,*62
$GPGSV,3,1,12,18,70,062,33,23,61,163,27,10,33,194,22,15,26,083,36*76
$GPGSV,3,2,12,29,20,123,28,13,16,054,34,16,48,274,21,26,38,224,28*73
$GPGSV,3,3,12,27,31,302,10,05,11,043,22,07,04,342,,08,03,304,*75
$GPGSA,A,3,10,13,15,18,23,29,,,,,,,1.6,1.1,1.1*31
$GPRMC,042509.00,A,5034.876065,N,03635.618728,E,000.0,,300921,,,A*7A
$GPGGA,042510.00,5034.876065,N,03635.618728,E,1,12,1.2,231.7,M,17.3,M,,*65
$GPGSV,3,1,12,18,70,062,32,23,61,163,27,10,33,194,22,15,26,083,36*77
$GPGSV,3,2,12,29,20,123,28,13,16,054,34,16,48,274,21,26,38,224,28*73
$GPGSV,3,3,12,27,31,302,10,05,11,043,22,07,04,342,,08,03,304,*75
$GPGSA,A,3,10,13,15,18,23,29,,,,,,,1.6,1.1,1.1*31
$GPRMC,042510.00,A,5034.876065,N,03635.618728,E,000.0,,300921,,,A*72
$GPGGA,042511.00,5034.876065,N,03635.618728,E,1,12,0.8,231.6,M,17.3,M,,*6E
$GPGSV,3,1,12,18,70,062,32,23,61,163,27,10,33,194,22,15,26,083,36*77
$GPGSV,3,2,12,29,20,123,27,13,16,054,34,16,48,274,21,26,38,224,28*7C
$GPGSV,3,3,12,27,31,302,10,05,11,043,22,07,04,342,,08,03,304,*75
$GPGSA,A,3,10,13,15,18,23,29,,,,,,,1.6,1.1,1.1*31
$GPRMC,042511.00,A,5034.876065,N,03635.618728,E,000.0,,300921,,,A*73
$GPGGA,042512.00,5034.876065,N,03635.618728,E,1,12,0.8,231.5,M,17.3,M,,*6E
$GPGSV,3,1,12,18,70,062,32,23,61,163,27,10,33,194,22,15,26,083,36*77
$GPGSV,3,2,12,29,20,123,27,13,16,054,34,16,48,274,20,26,38,224,29*7C
$GPGSV,3,3,12,27,31,302,09,05,11,043,22,07,04,342,,08,03,304,*7D
$GPGSA,A,3,10,13,15,18,23,29,,,,,,,1.6,1.1,1.1*31
$GPRMC,042512.00,A,5034.876065,N,03635.618728,E,000.0,,300921,,,A*70
$GPGGA,042513.00,5034.876065,N,03635.618728,E,1,12,0.8,231.4,M,17.3,M,,*6E
$GPGSV,3,1,12,18,70,062,32,23,61,163,27,10,33,194,21,15,26,083,35*77
$GPGSV,3,2,12,29,20,123,27,13,16,054,34,16,48,274,20,26,38,224,29*7C
$GPGSV,3,3,12,27,31,302,09,05,11,043,22,07,04,342,,08,03,304,*7D
$GPGSA,A,3,10,13,15,18,23,29,,,,,,,1.6,1.1,1.1*31
$GPRMC,042513.00,A,5034.876065,N,03635.618728,E,000.0,,300921,,,A*71
$GPGGA,042514.00,5034.876065,N,03635.618728,E,1,12,0.8,231.3,M,17.3,M,,*6E
$GPGSV,3,1,12,18,70,062,32,23,61,163,26,10,33,194,23,15,26,083,35*74
$GPGSV,3,2,12,29,20,123,27,13,16,054,34,16,48,274,20,26,38,224,29*7C
$GPGSV,3,3,12,27,31,302,09,05,11,043,22,07,04,342,,08,03,304,*7D
$GPGSA,A,3,10,13,15,18,23,29,,,,,,,1.6,1.1,1.1*31
$GPRMC,042514.00,A,5034.876065,N,03635.618728,E,000.0,,300921,,,A*76
$GPGGA,042515.00,5034.876065,N,03635.618728,E,1,12,0.6,231.2,M,17.3,M,,*60
$GPGSV,3,1,12,18,70,062,32,23,61,163,27,10,33,194,25,15,26,083,35*73
$GPGSV,3,2,12,29,20,123,27,13,16,054,34,16,48,274,20,26,38,224,30*74
$GPGSV,3,3,12,27,31,302,09,05,11,043,22,07,04,342,,08,03,304,*7D
$GPGSA,A,3,10,13,15,18,23,29,,,,,,,1.6,1.1,1.1*31
$GPRMC,042515.00,A,5034.876065,N,03635.618728,E,000.0,,300921,,,A*77
$GPGGA,042516.00,5034.876065,N,03635.618728,E,1,12,0.6,231.1,M,17.3,M,,*60
$GPGSV,3,1,12,18,70,062,32,23,61,163,30,10,33,194,25,15,26,083,36*76
$GPGSV,3,2,12,29,20,123,27,13,16,054,34,16,48,274,19,26,38,224,30*7E
$GPGSV,3,3,12,27,31,302,09,05,11,043,24,07,04,342,,08,03,304,*7B
$GPGSA,A,3,10,13,15,18,23,29,,,,,,,1.7,1.3,1.1*32
$GPRMC,042516.00,A,5034.876065,N,03635.618728,E,000.0,,300921,,,A*74
$GPGGA,042517.00,5034.876065,N,03635.618728,E,1,12,1.2,231.1,M,17.3,M,,*64
$GPGSV,3,1,12,18,70,062,32,23,61,163,30,10,33,194,25,15,26,083,36*76
$GPGSV,3,2,12,29,20,123,27,13,16,054,34,16,48,274,19,26,38,224,30*7E
$GPGSV,3,3,12,27,31,302,09,05,11,043,23,07,04,342,,08,03,304,*7C
$GPGSA,A,3,10,13,15,18,23,29,,,,,,,1.6,1.2,1.1*32
$GPRMC,042517.00,A,5034.876065,N,03635.618728,E,000.0,,300921,,,A*75
$GPGGA,042518.00,5034.876065,N,03635.618728,E,1,12,0.8,231.0,M,17.3,M,,*61
$GPGSV,3,1,12,18,70,062,32,23,61,163,29,10,33,194,26,15,26,083,35*7E
$GPGSV,3,2,12,29,20,123,27,13,16,054,34,16,48,274,19,26,38,224,31*7F
$GPGSV,3,3,12,27,31,302,11,05,11,043,23,07,04,342,,08,03,304,*75
$GPGSA,A,3,10,13,15,18,23,29,,,,,,,1.6,1.2,1.1*32
$GPRMC,042518.00,A,5034.876065,N,03635.618728,E,000.0,,300921,,,A*7A
$GPGGA,042519.00,5034.876065,N,03635.618728,E,1,12,0.6,230.9,M,17.3,M,,*66
$GPGSV,3,1,12,18,70,062,32,23,61,163,30,10,33,194,26,15,26,083,35*76
$GPGSV,3,2,12,29,20,123,27,13,16,054,34,16,48,274,19,26,38,224,31*7F
$GPGSV,3,3,12,27,31,302,12,05,11,043,23,07,04,342,,08,03,304,*76
$GPGSA,A,3,10,13,15,18,23,29,,,,,,,1.6,1.2,1.2*31
$GPRMC,042519.00,A,5034.876065,N,03635.618728,E,000.0,,300921,,,A*7B
$GPGGA,042520.00,5034.876065,N,03635.618728,E,1,12,2.4,230.8,M,17.3,M,,*6D
$GPGSV,3,1,12,18,70,062,32,23,61,163,31,10,33,194,26,15,26,083,35*77
$GPGSV,3,2,12,29,20,123,27,13,16,054,35,16,48,274,19,26,38,224,31*7E
$GPGSV,3,3,12,27,31,302,12,05,11,043,23,07,04,342,,08,03,304,*76
$GPGSA,A,3,10,13,15,18,23,29,,,,,,,1.9,1.5,1.1*3A
$GPRMC,042520.00,A,5034.876065,N,03635.618728,E,000.0,,300921,,,A*71
$GPGGA,042521.00,5034.876065,N,03635.618728,E,1,12,0.8,230.7,M,17.3,M,,*6D
$GPGSV,3,1,12,18,70,062,31,23,61,163,31,10,33,194,27,15,26,083,35*75
$GPGSV,3,2,12,29,20,123,26,13,16,054,35,16,48,274,20,26,38,224,30*74
$GPGSV,3,3,12,27,31,302,12,05,11,043,23,07,04,342,,08,03,304,*76
$GPGSA,A,3,10,13,15,18,23,29,,,,,,,1.6,1.2,1.1*32
$GPRMC,042521.00,A,5034.876065,N,03635.618728,E,000.0,,300921,,,A*70
$GPGGA,042522.00,5034.876065,N,03635.618728,E,1,12,0.8,230.6,M,17.3,M,,*6F
$GPGSV,3,1,12,18,70,062,31,23,61,163,31,10,33,194,28,15,26,083,34*7B
$GPGSV,3,2,12,29,20,123,28,13,16,054,35,16,48,274,20,26,38,224,30*7A
$GPGSV,3,3,12,27,31,302,12,05,11,043,22,07,04,342,,08,03,304,*77
$GPGSA,A,3,10,13,15,18,23,29,,,,,,,1.6,1.1,1.1*31
$GPRMC,042522.00,A,5034.876065,N,03635.618728,E,000.0,,300921,,,A*73
$GPGGA,042523.00,5034.876065,N,03635.618728,E,1,12,0.8,230.5,M,17.3,M,,*6D
$GPGSV,3,1,12,18,70,062,31,23,61,163,31,10,33,194,28,15,26,083,34*7B
$GPGSV,3,2,12,29,20,123,28,13,16,054,35,16,48,274,20,26,38,224,30*7A
$GPGSV,3,3,12,27,31,302,13,05,11,043,22,07,04,342,,08,03,304,*76
$GPGSA,A,3,10,13,15,18,23,29,,,,,,,2.0,1.6,1.2*30
$GPRMC,042523.00,A,5034.876065,N,03635.618728,E,000.0,,300921,,,A*72
$GPGGA,042524.00,5034.876065,N,03635.618728,E,1,12,0.8,230.4,M,17.3,M,,*6B
$GPGSV,3,1,12,18,70,062,30,23,61,163,31,10,33,194,28,15,26,083,34*7A
$GPGSV,3,2,12,29,20,123,27,13,16,054,35,16,48,274,20,26,38,224,31*74
$GPGSV,3,3,12,27,31,302,13,05,11,043,22,07,04,342,,08,03,304,*76
$GPGSA,A,3,10,13,15,18,23,29,,,,,,,1.7,1.3,1.2*31
$GPRMC,042524.00,A,5034.876065,N,03635.618728,E,000.0,,300921,,,A*75
$GPGGA,042525.00,5034.876065,N,03635.618728,E,1,12,0.6,230.4,M,17.3,M,,*64
$GPGSV,3,1,12,18,70,062,30,23,61,163,31,10,33,194,28,15,26,083,34*7A
$GPGSV,3,2,12,29,20,123,27,13,16,054,34,16,48,274,20,26,38,224,31*75
$GPGSV,3,3,12,27,31,302,13,05,11,043,21,07,04,342,,08,03,304,*75
$GPGSA,A,3,10,13,15,18,23,29,,,,,,,1.7,1.3,1.2*31
$GPRMC,042525.00,A,5034.876065,N,03635.618728,E,000.0,,300921,,,A*74
$GPGGA,042526.00,5034.876065,N,03635.618728,E,1,12,0.6,230.3,M,17.3,M,,*60
$GPGSV,3,1,12,18,70,062,30,23,61,163,31,10,33,194,28,15,26,083,34*7A
$GPGSV,3,2,12,29,20,123,27,13,16,054,34,16,48,274,20,26,38,224,31*75
$GPGSV,3,3,12,27,31,302,14,05,11,043,21,07,04,342,,08,03,304,*72
$GPGSA,A,3,10,13,15,18,23,29,,,,,,,1.8,1.3,1.2*3E
$GPRMC,042526.00,A,5034.876065,N,03635.618728,E,000.0,,300921,,,A*77
$GPGGA,042527.00,5034.876065,N,03635.618728,E,1,12,0.6,230.2,M,17.3,M,,*60
$GPGSV,3,1,12,18,70,062,29,23,61,163,31,10,33,194,28,15,26,083,33*75
$GPGSV,3,2,12,29,20,123,27,13,16,054,34,16,48,274,20,26,38,224,31*75
$GPGSV,3,3,12,27,31,302,14,05,11,043,21,07,04,342,,08,03,304,*72
$GPGSA,A,3,10,13,15,18,23,29,,,,,,,1.8,1.3,1.2*3E
$GPRMC,042527.00,A,5034.876065,N,03635.618728,E,000.0,,300921,,,A*76
$GPGGA,042528.00,5034.876065,N,03635.618728,E,1,12,0.6,230.1,M,17.3,M,,*6C
$GPGSV,3,1,12,18,70,062,29,23,61,163,31,10,33,194,29,15,26,083,33*74
$GPGSV,3,2,12,29,20,123,27,13,16,054,34,16,48,274,20,26,38,224,32*76
$GPGSV,3,3,12,27,31,302,14,05,11,043,21,07,04,342,,08,03,304,*72
$GPGSA,A,3,10,13,15,18,23,29,,,,,,,1.7,1.3,1.2*31
$GPRMC,042528.00,A,5034.876065,N,03635.618728,E,000.0,,300921,,,A*79
$GPGGA,042529.00,5034.876065,N,03635.618728,E,1,12,0.6,230.0,M,17.3,M,,*6C
$GPGSV,3,1,12,18,70,063,29,23,61,163,31,10,33,194,29,15,26,083,33*75
$GPGSV,3,2,12,29,20,123,28,13,16,054,34,16,48,274,20,26,38,224,32*79
$GPGSV,3,3,12,27,31,302,14,05,11,043,21,07,04,342,,08,03,304,*72
$GPGSA,A,3,10,13,15,18,23,29,,,,,,,1.7,1.3,1.2*31
$GPRMC,042529.00,A,5034.876065,N,03635.618728,E,000.0,,300921,,,A*78
$GPGGA,042530.00,5034.876065,N,03635.618728,E,1,12,0.6,230.0,M,17.3,M,,*64
$GPGSV,3,1,12,18,70,063,29,23,61,163,31,10,33,194,29,15,26,083,33*75
$GPGSV,3,2,12,29,20,123,28,13,16,054,35,16,48,274,20,26,38,224,32*78
$GPGSV,3,3,12,27,31,302,14,05,11,043,21,07,04,342,,08,03,304,*72
$GPGSA,A,3,10,13,15,18,23,29,,,,,,,1.9,1.5,1.1*3A
$GPRMC,042530.00,A,5034.876065,N,03635.618728,E,000.0,,300921,,,A*70
$GPGGA,042531.00,5034.876065,N,03635.618728,E,1,13,0.8,229.9,M,17.3,M,,*6B
$GPGSV,3,1,12,18,70,063,29,23,61,163,30,10,33,194,29,15,26,083,33*74
$GPGSV,3,2,12,29,20,123,27,13,16,054,35,16,48,274,20,26,38,224,32*77
$GPGSV,3,3,12,27,31,302,15,05,11,043,21,07,04,342,,08,03,304,*73
$GPGSA,A,3,10,13,15,18,23,26,29,,,,,,1.9,1.5,1.2*3D
$GPRMC,042531.00,A,5034.876065,N,03635.618728,E,000.0,,300921,,,A*71
$GPGGA,042532.00,5034.876065,N,03635.618728,E,1,13,0.8,229.8,M,17.3,M,,*69
$GPGSV,3,1,12,18,70,063,29,23,61,163,30,26,38,224,32,10,33,194,29*75
$GPGSV,3,2,12,15,26,083,33,29,20,123,27,13,16,054,35,16,48,274,21*77
$GPGSV,3,3,12,27,31,302,16,05,11,043,23,07,04,342,,08,03,304,*72
$GPGSA,A,3,10,13,15,18,23,26,29,,,,,,1.9,1.5,1.2*3D
$GPRMC,042532.00,A,5034.876065,N,03635.618728,E,000.0,,300921,,,A*72
$GPGGA,042533.00,5034.876065,N,03635.618728,E,1,13,0.8,229.7,M,17.3,M,,*67
$GPGSV,3,1,12,18,70,063,28,23,61,163,30,26,38,224,32,10,33,194,29*74
$GPGSV,3,2,12,15,26,083,33,29,20,123,27,13,16,054,34,16,48,274,21*76
$GPGSV,3,3,12,27,31,302,19,05,11,043,23,07,04,342,,08,03,304,*7D
$GPGSA,A,3,10,13,15,18,23,26,29,,,,,,1.9,1.5,1.2*3D
$GPRMC,042533.00,A,5034.876065,N,03635.618728,E,000.0,,300921,,,A*73
$GPGGA,042534.00,5034.876065,N,03635.618728,E,1,13,0.8,229.7,M,17.3,M,,*60
$GPGSV,3,1,12,18,70,063,28,23,61,162,29,26,38,224,32,10,33,194,30*75
$GPGSV,3,2,12,15,26,083,33,29,20,123,27,13,16,054,35,16,48,274,21*77
$GPGSV,3,3,12,27,31,302,19,05,11,043,23,07,04,342,,08,03,304,*7D
$GPGSA,A,3,10,13,15,18,23,26,29,,,,,,1.9,1.5,1.2*3D
$GPRMC,042534.00,A,5034.876065,N,03635.618728,E,000.0,,300921,,,A*74
$GPGGA,042535.00,5034.876065,N,03635.618728,E,1,13,0.8,229.6,M,17.3,M,,*60
$GPGSV,3,1,12,18,70,063,28,23,61,162,29,26,38,224,32,10,33,194,30*75
$GPGSV,3,2,12,15,26,083,33,29,20,123,27,13,16,054,35,16,48,274,21*77
$GPGSV,3,3,12,27,31,302,20,05,11,043,23,07,04,342,,08,03,304,*77
$GPGSA,A,3,10,13,15,18,23,26,29,,,,,,1.6,1.1,1.2*36
$GPRMC,042535.00,A,5034.876065,N,03635.618728,E,000.0,,300921,,,A*75
$GPGGA,042536.00,5034.876065,N,03635.618728,E,1,13,0.8,229.5,M,17.3,M,,*60
$GPGSV,3,1,12,18,70,063,28,23,61,162,29,26,38,224,32,10,33,194,30*75
$GPGSV,3,2,12,15,26,083,33,29,20,123,26,13,16,054,35,16,48,274,21*76
$GPGSV,3,3,12,27,31,302,20,05,11,043,23,08,04,304,,07,04,342,*70
$GPGSA,A,3,10,13,15,18,23,26,29,,,,,,1.6,1.1,1.2*36
$GPRMC,042536.00,A,5034.876065,N,03635.618728,E,000.0,,300921,,,A*76
$GPGGA,042537.00,5034.876065,N,03635.618728,E,1,13,0.8,229.4,M,17.3,M,,*60
$GPGSV,3,1,12,18,70,063,28,23,61,162,28,26,38,224,32,10,33,194,30*74
$GPGSV,3,2,12,15,26,083,33,29,20,123,26,13,16,054,35,16,48,274,21*76
$GPGSV,3,3,12,27,31,302,21,05,11,043,23,08,04,304,,07,04,342,*71
$GPGSA,A,3,10,13,15,18,23,26,29,,,,,,1.7,1.3,1.2*35
$GPRMC,042537.00,A,5034.876065,N,03635.618728,E,000.0,,300921,,,A*77
$GPGGA,042538.00,5034.876065,N,03635.618728,E,1,13,0.6,229.4,M,17.3,M,,*61
$GPGSV,3,1,12,18,70,063,28,23,61,162,28,26,38,224,32,10,33,194,30*74
$GPGSV,3,2,12,15,26,083,33,29,20,123,26,13,16,054,35,16,48,274,20*77
$GPGSV,3,3,12,27,31,302,22,05,11,043,23,08,04,304,,07,04,342,*72
$GPGSA,A,3,10,13,15,18,23,26,29,,,,,,1.6,1.1,1.2*36
$GPRMC,042538.00,A,5034.876065,N,03635.618728,E,000.0,,300921,,,A*78
$GPGGA,042539.00,5034.876065,N,03635.618728,E,1,13,0.6,229.3,M,17.3,M,,*67
$GPGSV,3,1,12,18,70,063,28,23,62,162,28,26,38,224,31,10,33,194,30*74
$GPGSV,3,2,12,15,26,083,33,29,20,123,26,13,16,054,35,16,48,274,21*76
$GPGSV,3,3,12,27,31,302,22,05,11,043,22,08,04,304,,07,04,342,*73
$GPGSA,A,3,10,13,15,18,23,26,29,,,,,,1.6,1.1,1.2*36
$GPRMC,042539.00,A,5034.876065,N,03635.618728,E,000.0,,300921,,,A*79
$GPGGA,042540.00,5034.876065,N,03635.618728,E,1,13,0.6,229.3,M,17.3,M,,*69
$GPGSV,3,1,12,18,70,063,28,23,62,162,28,26,38,224,31,10,33,194,30*74
$GPGSV,3,2,12,15,26,083,32,29,20,123,26,13,16,054,35,16,48,274,21*77
$GPGSV,3,3,12,27,31,302,21,05,11,043,22,08,04,304,,07,04,342,*70
$GPGSA,A,3,10,13,15,18,23,26,29,,,,,,1.6,1.1,1.2*36
$GPRMC,042540.00,A,5034.876065,N,03635.618728,E,000.0,,300921,,,A*77
$GPGGA,042541.00,5034.876065,N,03635.618728,E,1,13,0.6,229.2,M,17.3,M,,*69
$GPGSV,3,1,12,18,70,063,28,23,62,162,27,26,38,224,31,10,33,194,30*7B
$GPGSV,3,2,12,15,26,083,32,29,20,123,26,13,16,054,35,16,48,274,21*77
$GPGSV,3,3,12,27,31,302,22,05,11,043,22,08,04,304,,07,04,342,*73
$GPGSA,A,3,10,13,15,18,23,26,29,,,,,,1.5,1.1,1.1*36
$GPRMC,042541.00,A,5034.876065,N,03635.618728,E,000.0,,300921,,,A*76
$GPGGA,042542.00,5034.876065,N,03635.618728,E,1,13,0.6,229.1,M,17.3,M,,*69
$GPGSV,3,1,12,18,70,063,28,23,62,162,27,26,38,224,31,10,33,194,30*7B
$GPGSV,3,2,12,15,26,083,32,29,20,123,26,13,16,054,35,16,48,274,21*77
$GPGSV,3,3,12,27,31,302,22,05,11,043,22,08,04,304,,07,04,342,*73
$GPGSA,A,3,10,13,15,18,23,26,29,,,,,,1.5,1.1,1.1*36
$GPRMC,042542.00,A,5034.876065,N,03635.618728,E,000.0,,300921,,,A*75
$GPGGA,042543.00,5034.876065,N,03635.618728,E,1,13,0.6,229.1,M,17.3,M,,*68
$GPGSV,3,1,12,18,70,063,28,23,62,162,27,26,38,224,31,10,33,194,30*7B
$GPGSV,3,2,12,15,26,083,32,29,20,123,26,13,16,054,35,16,48,274,22*74
$GPGSV,3,3,12,27,31,302,22,05,11,043,22,08,04,304,,07,04,342,*73
$GPGSA,A,3,10,13,15,18,23,26,29,,,,,,1.6,1.1,1.2*36
$GPRMC,042543.00,A,5034.876065,N,03635.618728,E,000.0,,300921,,,A*74
$GPGGA,042544.00,5034.876065,N,03635.618728,E,1,13,0.6,229.0,M,17.3,M,,*6E
$GPGSV,3,1,12,18,70,063,28,23,62,162,27,26,38,224,31,10,33,194,30*7B
$GPGSV,3,2,12,15,26,083,32,29,20,123,25,13,16,054,35,16,48,274,22*77
$GPGSV,3,3,12,27,31,302,21,05,11,043,22,08,04,304,,07,04,342,*70
$GPGSA,A,3,10,13,15,18,23,26,29,,,,,,1.6,1.1,1.2*36
$GPRMC,042544.00,A,5034.876065,N,03635.618728,E,000.0,,300921,,,A*73
$GPGGA,042545.00,5034.876065,N,03635.618728,E,1,13,0.6,228.9,M,17.3,M,,*67
$GPGSV,3,1,12,18,70,063,27,23,62,162,26,26,38,224,30,10,33,194,30*74
$GPGSV,3,2,12,15,26,083,32,29,20,123,25,13,16,054,35,16,48,274,22*77
$GPGSV,3,3,12,27,31,302,21,05,11,043,22,08,04,304,,07,04,342,*70
$GPGSA,A,3,10,13,15,18,23,26,29,,,,,,1.6,1.1,1.2*36
$GPRMC,042545.00,A,5034.876065,N,03635.618728,E,000.0,,300921,,,A*72
$GPGGA,042546.00,5034.876065,N,03635.618728,E,1,13,0.8,228.8,M,17.3,M,,*6B
$GPGSV,3,1,12,18,70,063,27,23,62,162,26,26,38,224,30,10,33,194,31*75
$GPGSV,3,2,12,15,26,083,34,29,20,123,25,13,16,054,35,16,48,274,22*71
$GPGSV,3,3,12,27,31,302,21,05,11,043,22,08,04,304,,07,04,342,*70
$GPGSA,A,3,10,13,15,18,23,26,29,,,,,,1.6,1.1,1.2*36
$GPRMC,042546.00,A,5034.876065,N,03635.618728,E,000.0,,300921,,,A*71
$GPGGA,042547.00,5034.876065,N,03635.618728,E,1,13,0.8,228.8,M,17.3,M,,*6A
$GPGSV,3,1,12,18,70,063,27,23,62,162,26,26,38,224,30,10,33,194,31*75
$GPGSV,3,2,12,15,26,083,34,29,20,123,25,13,16,054,35,16,48,274,22*71
$GPGSV,3,3,12,27,31,302,21,05,11,043,22,08,04,304,,07,04,342,*70
$GPGSA,A,3,10,13,15,18,23,26,29,,,,,,1.6,1.1,1.2*36
$GPRMC,042547.00,A,5034.876065,N,03635.618728,E,000.0,,300921,,,A*70
$GPGGA,042548.00,5034.876065,N,03635.618728,E,1,13,0.6,228.7,M,17.3,M,,*64
$GPGSV,3,1,12,18,70,063,27,23,62,162,26,26,38,224,30,10,33,194,31*75
$GPGSV,3,2,12,15,26,083,34,29,20,123,26,13,16,054,35,16,48,274,22*72
$GPGSV,3,3,12,27,31,302,21,05,11,043,21,08,04,304,,07,04,342,*73
$GPGSA,A,3,10,13,15,18,23,26,29,,,,,,1.6,1.1,1.2*36
$GPRMC,042548.00,A,5034.876065,N,03635.618728,E,000.0,,300921,,,A*7F
$GPGGA,042549.00,5034.876065,N,03635.618728,E,1,13,0.6,228.6,M,17.3,M,,*64
$GPGSV,3,1,12,18,70,063,27,23,62,162,26,26,38,224,30,10,33,194,31*75
$GPGSV,3,2,12,15,26,083,34,29,20,123,26,13,16,054,35,16,48,274,23*73
$GPGSV,3,3,12,27,31,302,21,05,11,043,21,08,04,304,,07,04,342,*73
$GPGSA,A,3,10,13,15,18,23,26,29,,,,,,1.6,1.1,1.2*36
$GPRMC,042549.00,A,5034.876065,N,03635.618728,E,000.0,,300921,,,A*7E
$GPGGA,042550.00,5034.876065,N,03635.618728,E,1,13,0.8,228.6,M,17.3,M,,*62
$GPGSV,3,1,12,18,70,063,27,23,62,162,27,26,38,224,30,10,33,194,30*75
$GPGSV,3,2,12,15,26,083,34,29,20,123,25,13,16,054,35,16,48,274,23*70
$GPGSV,3,3,12,27,31,302,21,05,11,043,21,08,04,304,,07,04,342,*73
$GPGSA,A,3,10,13,15,18,23,26,29,,,,,,1.6,1.1,1.2*36
$GPRMC,042550.00,A,5034.876065,N,03635.618728,E,000.0,,300921,,,A*76
$GPGGA,042551.00,5034.876065,N,03635.618728,E,1,13,0.8,228.5,M,17.3,M,,*60
$GPGSV,3,1,12,18,70,063,27,23,62,162,27,26,38,224,29,10,33,194,30*7D
$GPGSV,3,2,12,15,26,083,34,29,20,123,25,13,16,053,35,16,48,274,23*77
$GPGSV,3,3,12,27,31,302,21,05,11,043,21,08,04,304,,07,04,342,*73
$GPGSA,A,3,10,13,15,18,23,26,29,,,,,,1.6,1.2,1.1*36
$GPRMC,042551.00,A,5034.876065,N,03635.618728,E,000.0,,300921,,,A*77
$GPGGA,042552.00,5034.876065,N,03635.618728,E,1,13,0.8,228.4,M,17.3,M,,*62
$GPGSV,3,1,12,18,70,063,27,23,62,162,27,26,38,224,29,10,33,194,30*7D
$GPGSV,3,2,12,15,26,083,34,29,20,123,25,13,16,053,35,16,48,274,23*77
$GPGSV,3,3,12,27,31,302,21,05,11,043,21,08,04,304,,07,04,342,*73
$GPGSA,A,3,10,13,15,18,23,26,29,,,,,,1.8,1.4,1.1*3E
$GPRMC,042552.00,A,5034.876065,N,03635.618728,E,000.0,,300921,,,A*74
$GPGGA,042553.00,5034.876065,N,03635.618728,E,1,13,0.8,228.4,M,17.3,M,,*63
$GPGSV,3,1,12,18,70,063,27,23,62,162,27,26,38,224,29,10,33,194,30*7D
$GPGSV,3,2,12,15,26,083,34,29,20,123,24,13,16,053,35,16,48,274,23*76
$GPGSV,3,3,12,27,31,302,21,05,11,043,21,08,04,304,,07,04,342,*73
$GPGSA,A,3,10,13,15,18,23,26,29,,,,,,1.6,1.1,1.2*36
$GPRMC,042553.00,A,5034.876065,N,03635.618728,E,000.0,,300921,,,A*75
$GPGGA,042554.00,5034.876065,N,03635.618728,E,1,13,0.8,228.3,M,17.3,M,,*63
$GPGSV,3,1,12,18,70,063,26,23,62,162,27,26,38,224,29,10,33,194,30*7C
$GPGSV,3,2,12,15,26,083,34,29,20,123,24,13,16,053,35,16,48,274,23*76
$GPGSV,3,3,12,27,31,302,21,05,11,043,21,08,04,304,,07,04,342,*73
$GPGSA,A,3,10,13,15,18,23,26,29,,,,,,1.6,1.1,1.1*35
$GPRMC,042554.00,A,5034.876065,N,03635.618728,E,000.0,,300921,,,A*72
$GPGGA,042555.00,5034.876065,N,03635.618732,E,1,13,0.8,228.2,M,17.3,M,,*68
$GPGSV,3,1,12,18,70,063,26,23,62,162,26,26,38,224,29,10,33,194,30*7D
$GPGSV,3,2,12,15,26,083,34,29,20,123,23,13,16,053,35,16,48,274,24*76
$GPGSV,3,3,12,27,31,302,20,05,11,043,22,08,04,304,,07,04,342,*71
$GPGSA,A,3,10,13,15,18,23,26,29,,,,,,1.6,1.1,1.2*36
$GPRMC,042555.00,A,5034.876065,N,03635.618732,E,000.0,,300921,,,A*78
$GPGGA,042556.00,5034.875646,N,03635.619685,E,1,13,0.8,228.2,M,17.3,M,,*63
$GPGSV,3,1,12,18,70,063,23,23,62,162,25,26,38,224,27,10,33,194,28*7C
$GPGSV,3,2,12,15,26,083,33,29,20,123,11,13,16,053,34,16,48,274,23*76
$GPGSV,3,3,12,27,31,302,18,05,11,043,21,08,04,304,,07,04,342,*79
$GPGSA,A,3,10,13,15,18,23,26,29,,,,,,1.6,1.2,1.1*36
$GPRMC,042556.00,A,5034.875646,N,03635.619685,E,000.0,,300921,,,A*73
$GPGGA,042557.00,5034.874988,N,03635.620940,E,1,13,1.6,228.1,M,17.3,M,,*6E
$GPGSV,3,1,12,18,70,063,22,23,62,162,25,26,38,224,26,10,33,194,28*7C
$GPGSV,3,2,12,15,26,083,34,29,20,123,13,13,16,053,34,16,48,274,23*73
$GPGSV,3,3,12,27,31,302,19,05,10,043,21,08,04,304,,07,04,342,*79
$GPGSA,A,3,10,13,15,18,23,26,29,,,,,,1.6,1.2,1.1*36
$GPRMC,042557.00,A,5034.874988,N,03635.620940,E,000.0,,300921,,,A*72
$GPGGA,042558.00,5034.874206,N,03635.622408,E,1,13,1.6,228.0,M,17.3,M,,*6E
$GPGSV,3,1,12,18,69,063,20,23,62,162,24,26,38,224,26,10,33,194,26*79
$GPGSV,3,2,12,15,26,083,34,29,20,123,12,13,16,053,34,16,48,274,23*72
$GPGSV,3,3,12,27,31,302,14,05,10,043,21,08,04,304,,07,04,342,*74
$GPGSA,A,3,10,13,15,18,23,26,29,,,,,,1.7,1.2,1.2*34
$GPRMC,042558.00,A,5034.874206,N,03635.622408,E,000.0,,300921,,,A*73
$GPGGA,042559.00,5034.873436,N,03635.623844,E,1,12,1.6,228.0,M,17.3,M,,*69
$GPGSV,3,1,12,18,69,063,19,23,62,162,24,26,38,224,27,10,33,194,26*72
$GPGSV,3,2,12,15,26,083,34,29,20,123,13,13,16,053,34,16,48,274,23*73
$GPGSV,3,3,12,27,31,302,14,05,10,043,20,08,04,304,,07,04,342,*75
$GPGSA,A,3,10,13,15,18,23,26,,,,,,,1.8,1.4,1.1*35
$GPRMC,042559.00,A,5034.873436,N,03635.623844,E,000.0,,300921,,,A*75
$GPGGA,042600.00,5034.872693,N,03635.625201,E,1,12,1.6,228.0,M,17.3,M,,*67
$GPGSV,3,1,12,18,69,063,21,23,62,162,23,26,38,224,26,10,33,194,24*7D
$GPGSV,3,2,12,15,26,083,34,29,20,123,12,13,16,053,34,16,48,274,23*72
$GPGSV,3,3,12,27,31,302,11,05,10,043,22,08,04,304,,07,04,342,*72
$GPGSA,A,3,10,13,15,18,23,26,,,,,,,1.7,1.2,1.2*3F
$GPRMC,042600.00,A,5034.872693,N,03635.625201,E,000.0,,300921,,,A*7B
$GPGGA,042601.00,5034.871951,N,03635.626502,E,1,12,2.4,227.5,M,17.3,M,,*68
$GPGSV,3,1,12,18,69,063,20,23,62,162,24,26,38,224,25,10,33,194,23*7F
$GPGSV,3,2,12,15,26,083,34,29,20,123,12,13,16,053,34,16,48,274,23*72
$GPGSV,3,3,12,27,31,302,15,05,10,043,21,08,04,304,,07,04,342,*75
$GPGSA,A,3,10,13,15,18,23,26,,,,,,,1.7,1.2,1.2*3F
$GPRMC,042601.00,A,5034.871951,N,03635.626502,E,000.6,,300921,,,A*79
$GPGGA,042602.00,5034.871400,N,03635.627337,E,1,13,2.4,227.4,M,17.3,M,,*63
$GPGSV,3,1,12,18,69,063,21,23,62,162,24,26,38,224,25,10,33,194,22*7F
$GPGSV,3,2,12,15,26,083,34,29,20,123,12,13,16,053,34,16,48,274,23*72
$GPGSV,3,3,12,27,31,302,15,05,10,043,21,08,04,304,,07,04,342,*75
$GPGSA,A,3,10,13,15,18,23,26,29,,,,,,1.9,1.5,1.2*3D
$GPRMC,042602.00,A,5034.871400,N,03635.627337,E,000.0,,300921,,,A*74
$GPGGA,042603.00,5034.870996,N,03635.627917,E,1,13,2.4,227.4,M,17.3,M,,*69
$GPGSV,3,1,12,18,69,063,21,23,62,162,24,26,37,224,26,10,33,194,22*73
$GPGSV,3,2,12,15,26,083,34,29,20,123,12,13,16,053,34,16,48,273,23*75
$GPGSV,3,3,12,27,31,302,12,05,10,043,21,08,04,304,,07,04,342,*72
$GPGSA,A,3,10,13,15,18,23,26,29,,,,,,1.9,1.5,1.2*3D
$GPRMC,042603.00,A,5034.870996,N,03635.627917,E,000.0,,300921,,,A*7E
$GPGGA,042604.00,5034.870699,N,03635.628279,E,1,13,2.4,227.3,M,17.3,M,,*65
$GPGSV,3,1,12,18,69,063,20,23,62,162,22,26,37,224,26,10,33,194,24*72
$GPGSV,3,2,12,15,26,083,35,29,20,123,15,13,16,053,34,16,48,273,22*72
$GPGSV,3,3,12,27,31,302,13,05,10,043,21,08,04,304,,07,04,342,*73
$GPGSA,A,3,10,13,15,18,23,26,29,,,,,,1.8,1.3,1.2*3A
$GPRMC,042604.00,A,5034.870699,N,03635.628279,E,000.0,,300921,,,A*75
$GPGGA,042605.00,5034.870331,N,03635.628746,E,1,13,1.6,226.9,M,17.3,M,,*60
$GPGSV,3,1,12,18,69,063,22,23,62,162,23,26,37,224,28,10,33,194,23*78
$GPGSV,3,2,12,15,26,083,34,29,20,123,15,13,16,053,34,16,48,273,21*70
$GPGSV,3,3,12,27,31,302,13,05,10,043,21,08,04,304,,07,04,342,*73
$GPGSA,A,3,10,13,15,18,23,26,29,,,,,,1.7,1.2,1.1*37
$GPRMC,042605.00,A,5034.870331,N,03635.628746,E,000.7,,300921,,,A*7D
$GPGGA,042606.00,5034.870119,N,03635.628878,E,1,13,1.6,226.9,M,17.3,M,,*69
$GPGSV,3,1,12,18,69,063,24,23,62,162,23,26,37,224,27,10,33,194,23*71
$GPGSV,3,2,12,15,26,083,36,29,20,123,16,13,16,053,34,16,48,273,22*72
$GPGSV,3,3,12,27,31,302,14,05,10,043,21,08,04,304,,07,04,342,*74
$GPGSA,A,3,10,13,15,18,23,26,29,,,,,,1.7,1.2,1.1*37
$GPRMC,042606.00,A,5034.870119,N,03635.628878,E,000.0,,300921,,,A*73
$GPGGA,042607.00,5034.869968,N,03635.628918,E,1,13,1.6,226.9,M,17.3,M,,*69
$GPGSV,3,1,12,18,69,063,25,23,62,162,23,26,37,224,25,10,33,194,20*71
$GPGSV,3,2,12,15,26,083,36,29,20,123,22,13,16,053,34,16,48,273,21*76
$GPGSV,3,3,12,27,32,302,14,05,10,043,20,08,04,304,,07,04,342,*76
$GPGSA,A,3,10,13,15,18,23,26,29,,,,,,1.8,1.1,1.4*3E
$GPRMC,042607.00,A,5034.869968,N,03635.628918,E,000.0,,300921,,,A*73
$GPGGA,042608.00,5034.869830,N,03635.628946,E,1,13,1.2,226.8,M,17.3,M,,*64
$GPGSV,3,1,12,18,69,063,26,23,62,162,23,26,37,224,25,10,33,194,21*73
$GPGSV,3,2,12,15,26,083,36,29,20,123,21,13,16,053,34,16,48,273,20*74
$GPGSV,3,3,12,27,32,302,14,05,10,043,20,08,04,304,,07,04,342,*76
$GPGSA,A,3,10,13,15,18,23,26,29,,,,,,1.8,1.1,1.4*3E
$GPRMC,042608.00,A,5034.869830,N,03635.628946,E,000.0,,300921,,,A*7B
$GPGGA,042609.00,5034.869593,N,03635.629203,E,1,13,0.6,226.4,M,17.3,M,,*63
$GPGSV,3,1,12,18,69,063,25,23,62,162,25,26,37,224,26,10,33,194,21*75
$GPGSV,3,2,12,15,26,083,36,29,20,123,19,13,16,053,35,16,48,273,22*7C
$GPGSV,3,3,12,27,32,302,13,05,10,043,21,08,04,304,,07,04,342,*70
$GPGSA,A,3,10,13,15,18,23,26,29,,,,,,1.8,1.3,1.3*3B
$GPRMC,042609.00,A,5034.869593,N,03635.629203,E,000.8,,300921,,,A*7D
$GPGGA,042610.00,5034.869488,N,03635.629183,E,1,13,0.6,226.3,M,17.3,M,,*6C
$GPGSV,3,1,12,18,69,063,25,23,62,162,24,26,37,224,26,10,33,194,21*74
$GPGSV,3,2,12,15,26,083,36,29,20,123,19,13,16,053,35,16,48,273,22*7C
$GPGSV,3,3,12,27,32,302,14,05,10,043,21,08,04,304,,07,04,342,*77
$GPGSA,A,3,10,13,15,18,23,26,29,,,,,,1.7,1.2,1.2*34
$GPRMC,042610.00,A,5034.869488,N,03635.629183,E,000.0,,300921,,,A*7D
$GPGGA,042611.00,5034.869422,N,03635.629057,E,1,13,0.8,226.3,M,17.3,M,,*6B
$GPGSV,3,1,12,18,69,063,25,23,62,162,24,26,37,224,27,10,33,194,24*70
$GPGSV,3,2,12,15,26,083,35,29,20,123,20,13,16,053,35,16,48,273,21*76
$GPGSV,3,3,12,27,32,302,13,05,10,043,20,08,04,304,,07,04,342,*71
$GPGSA,A,3,10,13,15,18,23,26,29,,,,,,1.5,1.1,1.1*36
$GPRMC,042611.00,A,5034.869422,N,03635.629057,E,000.0,,300921,,,A*74
$GPGGA,042612.00,5034.869340,N,03635.629012,E,1,13,1.2,226.2,M,17.3,M,,*60
$GPGSV,3,1,12,18,69,063,25,23,62,162,25,26,37,224,28,10,33,194,24*7E
$GPGSV,3,2,12,15,26,083,34,29,20,123,22,13,16,053,35,16,48,273,20*74
$GPGSV,3,3,12,27,32,302,14,05,10,043,20,08,04,304,,07,04,342,*76
$GPGSA,A,3,10,13,15,18,23,26,29,,,,,,2.0,1.1,1.6*37
$GPRMC,042612.00,A,5034.869340,N,03635.629012,E,000.0,,300921,,,A*75
$GPGGA,042613.00,5034.869188,N,03635.629121,E,1,13,1.2,225.7,M,17.3,M,,*60
$GPGSV,3,1,12,18,69,063,24,23,62,162,26,26,37,224,28,10,33,194,24*7C
$GPGSV,3,2,12,15,26,083,34,29,20,123,22,13,16,053,35,16,48,273,20*74
$GPGSV,3,3,12,27,32,302,14,05,10,043,20,08,04,304,,07,04,342,*76
$GPGSA,A,3,10,13,15,18,23,26,29,,,,,,1.8,1.2,1.3*3A
$GPRMC,042613.00,A,5034.869188,N,03635.629121,E,000.6,,300921,,,A*75
$GPGGA,042614.00,5034.869148,N,03635.628947,E,1,13,0.8,225.7,M,17.3,M,,*69
$GPGSV,3,1,12,18,69,063,24,23,62,162,26,26,37,224,30,10,33,194,27*76
$GPGSV,3,2,12,15,26,083,34,29,20,123,21,13,16,053,36,16,48,273,20*74
$GPGSV,3,3,12,27,32,302,14,05,10,043,20,08,04,304,,07,04,342,*76
$GPGSA,A,3,10,13,15,18,23,26,29,,,,,,1.9,1.5,1.1*3E
$GPRMC,042614.00,A,5034.869148,N,03635.628947,E,000.0,,300921,,,A*71
$GPGGA,042615.00,5034.869074,N,03635.628870,E,1,13,0.6,225.6,M,17.3,M,,*6C
$GPGSV,3,1,12,18,69,063,26,23,62,162,25,26,37,224,32,10,33,194,28*7A
$GPGSV,3,2,12,15,26,083,33,29,20,123,21,13,16,053,35,16,48,273,21*71
$GPGSV,3,3,12,27,32,302,15,05,10,043,21,08,04,304,,07,04,342,*76
$GPGSA,A,3,10,13,15,18,23,26,29,,,,,,1.8,1.1,1.4*3E
$GPRMC,042615.00,A,5034.869074,N,03635.628870,E,000.0,,300921,,,A*7B
$GPGGA,042616.00,5034.868976,N,03635.628881,E,1,13,1.2,225.6,M,17.3,M,,*6E
$GPGSV,3,1,12,18,69,063,25,23,62,162,25,26,37,224,31,10,33,194,28*7A
$GPGSV,3,2,12,15,26,083,36,29,20,123,22,13,16,053,35,16,48,273,20*76
$GPGSV,3,3,12,27,32,302,14,05,10,043,21,08,04,304,,07,04,342,*77
$GPGSA,A,3,10,13,15,18,23,26,29,,,,,,1.7,1.2,1.3*35
$GPRMC,042616.00,A,5034.868976,N,03635.628881,E,000.0,,300921,,,A*7C
$GPGGA,042617.00,5034.868874,N,03635.628880,E,1,13,1.2,225.5,M,17.3,M,,*6E
$GPGSV,3,1,12,18,69,063,25,23,62,162,24,26,37,224,31,10,33,194,28*7B
$GPGSV,3,2,12,15,26,083,36,29,20,123,21,13,16,053,35,16,48,273,19*7F
$GPGSV,3,3,12,27,32,302,15,05,10,043,20,08,04,304,,07,04,342,*77
$GPGSA,A,3,10,13,15,18,23,26,29,,,,,,1.6,1.1,1.2*36
$GPRMC,042617.00,A,5034.868874,N,03635.628880,E,000.0,,300921,,,A*7F
$GPGGA,042618.00,5034.868752,N,03635.628897,E,1,13,0.8,225.4,M,17.3,M,,*66
$GPGSV,3,1,12,18,69,063,25,23,62,162,24,26,37,224,31,10,33,194,28*7B
$GPGSV,3,2,12,15,26,083,35,29,20,123,21,13,16,053,35,16,48,273,19*7C
$GPGSV,3,3,12,27,32,302,14,05,10,043,19,08,04,304,,07,04,342,*7C
$GPGSA,A,3,10,13,15,18,23,26,29,,,,,,1.6,1.1,1.2*36
$GPRMC,042618.00,A,5034.868752,N,03635.628897,E,000.0,,300921,,,A*7D
$GPGGA,042619.00,5034.868638,N,03635.628885,E,1,13,0.8,225.4,M,17.3,M,,*69
$GPGSV,3,1,12,18,69,063,24,23,62,162,24,26,37,224,31,10,33,194,28*7A
$GPGSV,3,2,12,15,26,083,35,29,20,123,22,13,16,053,35,16,48,273,21*74
$GPGSV,3,3,12,27,32,302,14,05,10,043,20,08,04,304,,07,04,342,*76
$GPGSA,A,3,10,13,15,18,23,26,29,,,,,,1.9,1.3,1.4*3D
$GPRMC,042619.00,A,5034.868638,N,03635.628885,E,000.0,,300921,,,A*72
$GPGGA,042620.00,5034.868532,N,03635.628907,E,1,13,0.8,225.3,M,17.3,M,,*66
$GPGSV,3,1,12,18,69,063,25,23,62,162,23,26,37,224,31,10,33,194,28*7C
$GPGSV,3,2,12,15,26,083,35,29,20,123,21,13,16,053,35,16,48,273,20*76
$GPGSV,3,3,12,27,32,302,14,05,10,043,20,08,04,304,,07,04,342,*76
$GPGSA,A,3,10,13,15,18,23,26,29,,,,,,1.8,1.2,1.3*3A
$GPRMC,042620.00,A,5034.868532,N,03635.628907,E,000.0,,300921,,,A*7A
$GPGGA,042621.00,5034.868419,N,03635.628954,E,1,13,0.8,225.2,M,17.3,M,,*68
$GPGSV,3,1,12,18,69,063,26,23,62,162,23,26,37,224,31,10,33,194,28*7F
$GPGSV,3,2,12,15,26,083,35,29,20,123,21,13,16,053,35,16,48,273,18*7D
$GPGSV,3,3,12,27,32,302,13,05,10,043,20,08,04,304,,07,04,342,*71
$GPGSA,A,3,10,13,15,18,23,26,29,,,,,,2.0,1.3,1.6*35
$GPRMC,042621.00,A,5034.868419,N,03635.628954,E,000.0,,300921,,,A*75
$GPGGA,042622.00,5034.868294,N,03635.629062,E,1,13,0.8,225.2,M,17.3,M,,*65
$GPGSV,3,1,12,18,69,063,27,23,62,162,23,26,37,224,31,10,33,194,27*71
$GPGSV,3,2,12,15,26,083,34,29,20,123,24,13,16,053,34,16,48,273,18*78
$GPGSV,3,3,12,27,32,302,13,05,10,043,20,08,04,305,,07,04,342,*70
$GPGSA,A,3,10,13,15,18,23,26,29,,,,,,2.1,1.3,1.7*35
$GPRMC,042622.00,A,5034.868294,N,03635.629062,E,000.0,,300921,,,A*78
$GPGGA,042623.00,5034.868171,N,03635.629161,E,1,13,0.8,225.1,M,17.3,M,,*6D
$GPGSV,3,1,12,18,69,063,28,23,62,162,23,26,37,224,31,10,33,194,27*7E
$GPGSV,3,2,12,15,26,083,34,29,20,123,25,13,16,053,34,16,48,273,18*79
$GPGSV,3,3,12,27,32,302,13,05,10,043,20,08,04,305,,07,04,342,*70
$GPGSA,A,3,10,13,15,18,23,26,29,,,,,,2.0,1.1,1.6*37
$GPRMC,042623.00,A,5034.868171,N,03635.629161,E,000.0,,300921,,,A*73
